{
  "meta": {
    "source": "openstreetmap",
    "created_at": "2026-01-28",
    "version": "1.0",
    "region": "Mansfeld-Südharz",
    "total_count": 65
  },
  "data": [
    {
      "id": "osm-node-300047717",
      "type": "townhall",
      "name": "Stadtverwaltung Bad Frankenhausen",
      "city": "Mansfeld-Südharz",
      "latitude": 51.3556789,
      "longitude": 11.1004727,
      "phone": "+49 34671 7200",
      "phoneFormatted": "03467 / 17 20 0",
      "email": "info@bad-frankenhausen.de",
      "openingHours": "Mo,Fr 09:00-12:00; Tu 09:00-13:00,14:00-18:00; Th 09:00-13:00,14:00-16:00",
      "targetAudience": "alle",
      "source": "openstreetmap",
      "sourceId": "node/300047717"
    },
    {
      "id": "osm-node-410939523",
      "type": "townhall",
      "name": "Verwaltungsgemeinschaft Helbra -Grund",
      "city": "Mansfeld-Südharz",
      "latitude": 51.5476304,
      "longitude": 11.4880419,
      "targetAudience": "alle",
      "source": "openstreetmap",
      "sourceId": "node/410939523"
    },
    {
      "id": "osm-node-413077758",
      "type": "townhall",
      "name": "Stadtverwaltung Kelbra",
      "city": "Südharz",
      "latitude": 51.4357436,
      "longitude": 11.0414653,
      "targetAudience": "alle",
      "source": "openstreetmap",
      "sourceId": "node/413077758"
    },
    {
      "id": "osm-node-419776579",
      "type": "government_office",
      "name": "ehem. Martinikirche (Standesamt)",
      "city": "Südharz",
      "latitude": 51.4344496,
      "longitude": 11.0338874,
      "targetAudience": "alle",
      "source": "openstreetmap",
      "sourceId": "node/419776579"
    },
    {
      "id": "osm-node-1099383977",
      "type": "government_office",
      "name": "Bafög-Amt",
      "city": "Mansfeld-Südharz",
      "latitude": 51.4976784,
      "longitude": 10.808984,
      "targetAudience": "alle",
      "source": "openstreetmap",
      "sourceId": "node/1099383977"
    },
    {
      "id": "osm-node-1264084920",
      "type": "townhall",
      "name": "Abberode",
      "city": "Mansfeld-Südharz",
      "latitude": 51.6156887,
      "longitude": 11.2917954,
      "targetAudience": "alle",
      "source": "openstreetmap",
      "sourceId": "node/1264084920"
    },
    {
      "id": "osm-node-1373669330",
      "type": "townhall",
      "name": "Gemeindeamt",
      "street": "Kreisstraße 42",
      "postalCode": "99765",
      "city": "Urbach",
      "latitude": 51.4830164,
      "longitude": 10.9012578,
      "phone": "+49 36333 70803",
      "phoneFormatted": "03633 / 37 08 03",
      "website": "https://www.stadt-heringen.de/urbach.html",
      "openingHours": "Th 15:00-18:00",
      "targetAudience": "alle",
      "source": "openstreetmap",
      "sourceId": "node/1373669330"
    },
    {
      "id": "osm-node-1499843964",
      "type": "townhall",
      "name": "Mehrzweckhalle + Clubraum",
      "city": "Mansfeld-Südharz",
      "latitude": 51.6203191,
      "longitude": 11.7440015,
      "targetAudience": "alle",
      "source": "openstreetmap",
      "sourceId": "node/1499843964"
    },
    {
      "id": "osm-node-1738967815",
      "type": "government_office",
      "name": "Stadtjugendring Sondershausen e.V.",
      "city": "Mansfeld-Südharz",
      "latitude": 51.3687782,
      "longitude": 10.8539992,
      "phone": "+49 3632 8287534",
      "phoneFormatted": "03632 / 82 87 534",
      "website": "https://www.stadtjugendring-sondershausen.de/",
      "targetAudience": "alle",
      "source": "openstreetmap",
      "sourceId": "node/1738967815"
    },
    {
      "id": "osm-node-1738970443",
      "type": "government_office",
      "name": "Kreisjugendring Kyffhäuserkreis e.V.",
      "city": "Mansfeld-Südharz",
      "latitude": 51.3690125,
      "longitude": 10.8634746,
      "website": "http://www.kjr-kyffhaeuserkreis.de",
      "targetAudience": "alle",
      "source": "openstreetmap",
      "sourceId": "node/1738970443"
    },
    {
      "id": "osm-node-4230772356",
      "type": "government_office",
      "name": "Forstbetrieb Ostharz",
      "street": "Forstpark 1",
      "postalCode": "06493",
      "city": "Harzgerode",
      "latitude": 51.6395842,
      "longitude": 11.1346269,
      "targetAudience": "alle",
      "source": "openstreetmap",
      "sourceId": "node/4230772356"
    },
    {
      "id": "osm-node-4423939237",
      "type": "townhall",
      "name": "Bürgermeister Büro",
      "city": "Mansfeld-Südharz",
      "latitude": 51.3003616,
      "longitude": 11.6605268,
      "targetAudience": "alle",
      "source": "openstreetmap",
      "sourceId": "node/4423939237"
    },
    {
      "id": "osm-node-6194190953",
      "type": "government_office",
      "name": "Standesamt Röblingen am See",
      "city": "Mansfeld-Südharz",
      "latitude": 51.4640726,
      "longitude": 11.6738722,
      "targetAudience": "alle",
      "source": "openstreetmap",
      "sourceId": "node/6194190953"
    },
    {
      "id": "osm-node-7004617986",
      "type": "government_office",
      "name": "Energieversorger",
      "street": "Am Petersenschacht 1",
      "city": "Mansfeld-Südharz",
      "latitude": 51.367486,
      "longitude": 10.8443615,
      "targetAudience": "alle",
      "source": "openstreetmap",
      "sourceId": "node/7004617986"
    },
    {
      "id": "osm-node-8660364373",
      "type": "townhall",
      "name": "Gemeinde Kyffhäuserland",
      "street": "Neuendorfstraße 3",
      "postalCode": "99707",
      "city": "Kyffhäuserland",
      "latitude": 51.3725896,
      "longitude": 11.0056993,
      "phone": "+49 34671 6600",
      "phoneFormatted": "03467 / 16 60 0",
      "website": "https://www.kyffhaeuser-land.de",
      "email": "info@kyffhaeuserland.de",
      "targetAudience": "alle",
      "source": "openstreetmap",
      "sourceId": "node/8660364373"
    },
    {
      "id": "osm-node-8660364374",
      "type": "government_office",
      "name": "Gemeindeamt Bendeleben",
      "street": "Burgstraße 3",
      "postalCode": "99707",
      "city": "Kyffhäuserland",
      "latitude": 51.3722899,
      "longitude": 11.0058056,
      "openingHours": "Mo 16:30-17:30",
      "targetAudience": "alle",
      "source": "openstreetmap",
      "sourceId": "node/8660364374"
    },
    {
      "id": "osm-node-10231041590",
      "type": "government_office",
      "name": "Stadtverwaltung Sondershausen",
      "city": "Mansfeld-Südharz",
      "latitude": 51.3712705,
      "longitude": 10.8724229,
      "website": "https://www.sondershausen.de/",
      "isBarrierFree": true,
      "targetAudience": "alle",
      "source": "openstreetmap",
      "sourceId": "node/10231041590",
      "operator": "Stadt Sondershausen"
    },
    {
      "id": "osm-node-11132624009",
      "type": "townhall",
      "name": "Stadt Harzgerode - Bau- und Ordnungsverwaltung Stadtinformation",
      "city": "Mansfeld-Südharz",
      "latitude": 51.6418548,
      "longitude": 11.1426725,
      "openingHours": "Mo, Tu, Th, Fr 09:00-12:00",
      "targetAudience": "alle",
      "source": "openstreetmap",
      "sourceId": "node/11132624009"
    },
    {
      "id": "osm-node-11762217992",
      "type": "government_office",
      "name": "Zollservicepunkt Nordhausen",
      "street": "Bahnhofstraße 21",
      "postalCode": "99734",
      "city": "Nordhausen",
      "latitude": 51.4922072,
      "longitude": 10.8017716,
      "phone": "+49 3631 4626200",
      "phoneFormatted": "03631 / 46 26 200",
      "website": "https://www.zoll.de/SharedDocs/Dienststellen/DE/1_DSSD_Importer/Hauptzollamt/HZA_Erfurt/ZA/ZA_Am_Flughafen_ZSP_Nordhausen_3013/ZA_Am_Flughafen_ZSP_Nordhausen_3013.html",
      "targetAudience": "alle",
      "source": "openstreetmap",
      "sourceId": "node/11762217992"
    },
    {
      "id": "osm-node-12030778561",
      "type": "government_office",
      "name": "Thüringer Landesamt für Bodenmanagement und Geoinformation - Zweigstelle Artern",
      "street": "Alte Poststraße 10",
      "postalCode": "06556",
      "city": "Artern",
      "latitude": 51.3638526,
      "longitude": 11.2919077,
      "website": "https://tlbg.thueringen.de/",
      "targetAudience": "alle",
      "source": "openstreetmap",
      "sourceId": "node/12030778561",
      "operator": "Thüringer Landesamt für Bodenmanagement und Geoinformation"
    },
    {
      "id": "osm-node-12170402987",
      "type": "townhall",
      "name": "Einwohnermeldeamt Goldene Aue",
      "city": "Mansfeld-Südharz",
      "latitude": 51.4603496,
      "longitude": 11.2072202,
      "targetAudience": "alle",
      "source": "openstreetmap",
      "sourceId": "node/12170402987"
    },
    {
      "id": "osm-way-35780477",
      "type": "government_office",
      "name": "Finanzamt",
      "city": "Lutherstadt Eisleben",
      "latitude": 51.5186542,
      "longitude": 11.5519805,
      "openingHours": "Mo,Th,Fr 08:00-12:00; Tu 08:00-12:00,14:00-18:00",
      "targetAudience": "alle",
      "source": "openstreetmap",
      "sourceId": "way/35780477"
    },
    {
      "id": "osm-way-36967232",
      "type": "townhall",
      "name": "Rathaus Eisleben",
      "street": "Markt 1",
      "postalCode": "06295",
      "city": "Lutherstadt Eisleben",
      "latitude": 51.5281929,
      "longitude": 11.5456163,
      "targetAudience": "alle",
      "source": "openstreetmap",
      "sourceId": "way/36967232"
    },
    {
      "id": "osm-way-57834330",
      "type": "townhall",
      "name": "Rathaus",
      "city": "Allstedt",
      "latitude": 51.4039976,
      "longitude": 11.3852798,
      "targetAudience": "alle",
      "source": "openstreetmap",
      "sourceId": "way/57834330"
    },
    {
      "id": "osm-way-58266455",
      "type": "government_office",
      "name": "Verwaltungsamt",
      "city": "Allstedt",
      "latitude": 51.404939,
      "longitude": 11.3880563,
      "targetAudience": "alle",
      "source": "openstreetmap",
      "sourceId": "way/58266455"
    },
    {
      "id": "osm-way-58266456",
      "type": "government_office",
      "name": "Verwaltungsamt",
      "city": "Allstedt",
      "latitude": 51.4048237,
      "longitude": 11.3885141,
      "targetAudience": "alle",
      "source": "openstreetmap",
      "sourceId": "way/58266456"
    },
    {
      "id": "osm-way-71184899",
      "type": "townhall",
      "name": "Rathaus Sondershausen",
      "street": "Markt 1",
      "postalCode": "99706",
      "city": "Sondershausen",
      "latitude": 51.3711968,
      "longitude": 10.8724518,
      "targetAudience": "alle",
      "source": "openstreetmap",
      "sourceId": "way/71184899"
    },
    {
      "id": "osm-way-77488865",
      "type": "government_office",
      "name": "Landratsamt Kyffhäuserkreis",
      "city": "Mansfeld-Südharz",
      "latitude": 51.3718181,
      "longitude": 10.8729594,
      "website": "https://www.kyffhaeuser.de/",
      "targetAudience": "alle",
      "source": "openstreetmap",
      "sourceId": "way/77488865",
      "operator": "Landratsamt Kyffhäuserkreis"
    },
    {
      "id": "osm-way-78625900",
      "type": "government_office",
      "name": "Finanzamt Sondershausen",
      "street": "Schillerstraße 6",
      "postalCode": "99706",
      "city": "Sondershausen",
      "latitude": 51.3689899,
      "longitude": 10.8575309,
      "website": "https://www.thueringen.de/de/finanzaemter/finanzaemter/sondershausen/adresse/",
      "openingHours": "Mo,We,Th 08:00-15:30; Tu 08:00-18:00; Fr 08:00-12:00",
      "targetAudience": "alle",
      "source": "openstreetmap",
      "sourceId": "way/78625900"
    },
    {
      "id": "osm-way-96733084",
      "type": "government_office",
      "name": "Gesundheitsamt, Veterinär- /Lebensmittelüberwachungsamt",
      "street": "Edmund-König-Straße 7",
      "postalCode": "99706",
      "city": "Sondershausen",
      "latitude": 51.365417,
      "longitude": 10.8725386,
      "targetAudience": "alle",
      "source": "openstreetmap",
      "sourceId": "way/96733084",
      "operator": "Landratsamt Kyffhäuserkreis"
    },
    {
      "id": "osm-way-141602896",
      "type": "townhall",
      "name": "Rathaus Gerbstedt",
      "city": "Gerbstedt",
      "latitude": 51.6320628,
      "longitude": 11.6273302,
      "targetAudience": "alle",
      "source": "openstreetmap",
      "sourceId": "way/141602896"
    },
    {
      "id": "osm-way-144210600",
      "type": "government_office",
      "name": "Straßenverkehrsbehörde Kyffhäuserkreis",
      "city": "Mansfeld-Südharz",
      "latitude": 51.3646912,
      "longitude": 10.8463187,
      "targetAudience": "alle",
      "source": "openstreetmap",
      "sourceId": "way/144210600"
    },
    {
      "id": "osm-way-172568374",
      "type": "townhall",
      "name": "Rathaus",
      "street": "Markt 1",
      "postalCode": "06526",
      "city": "Sangerhausen",
      "latitude": 51.473246,
      "longitude": 11.2989243,
      "targetAudience": "alle",
      "source": "openstreetmap",
      "sourceId": "way/172568374",
      "operator": "Stadt Sangerhausen"
    },
    {
      "id": "osm-way-175593271",
      "type": "townhall",
      "name": "Rathaus & Rankemuseum",
      "street": "Leopold-von-Ranke-Straße 33",
      "postalCode": "06571",
      "city": "Roßleben-Wiehe",
      "latitude": 51.2647771,
      "longitude": 11.4139389,
      "phone": "+49 34672 890",
      "phoneFormatted": "034672890",
      "openingHours": "Tu 09:00-11:00,12:30-18:00; Fr 09:00-11:00",
      "targetAudience": "alle",
      "source": "openstreetmap",
      "sourceId": "way/175593271"
    },
    {
      "id": "osm-way-177179755",
      "type": "townhall",
      "name": "Gemeindeverwaltung Kalbsrieth",
      "street": "Schulwiese 145",
      "postalCode": "06556",
      "city": "Kalbsrieth",
      "latitude": 51.3417987,
      "longitude": 11.3363651,
      "phone": "+49 3466 302222",
      "phoneFormatted": "03466 / 30 22 22",
      "targetAudience": "alle",
      "source": "openstreetmap",
      "sourceId": "way/177179755"
    },
    {
      "id": "osm-way-178085323",
      "type": "townhall",
      "name": "Stadtverwaltung Artern",
      "street": "Markt 14",
      "postalCode": "06556",
      "city": "Artern",
      "latitude": 51.3651303,
      "longitude": 11.2907486,
      "phone": "+49 3466 32550",
      "phoneFormatted": "03466 / 32 55 0",
      "website": "https://www.artern.de/",
      "email": "info@artern.de",
      "targetAudience": "alle",
      "source": "openstreetmap",
      "sourceId": "way/178085323"
    },
    {
      "id": "osm-way-180762778",
      "type": "government_office",
      "name": "SU Wohnraumvermietung / Verwaltung UG",
      "street": "Heinrich-Heine-Straße 17",
      "postalCode": "06571",
      "city": "Roßleben-Wiehe",
      "latitude": 51.3042186,
      "longitude": 11.4329002,
      "phone": "+49 3691 884832",
      "phoneFormatted": "03691 / 88 48 32",
      "email": "SU-WRV.V-UG@web.de",
      "targetAudience": "alle",
      "source": "openstreetmap",
      "sourceId": "way/180762778",
      "operator": "SU Wohnraumvermietung / Verwaltung UG"
    },
    {
      "id": "osm-way-180883054",
      "type": "government_office",
      "name": "Weigl Immobilien",
      "street": "An der Kaufhalle 6",
      "postalCode": "06571",
      "city": "Roßleben-Wiehe",
      "latitude": 51.3028153,
      "longitude": 11.4338935,
      "phone": "+49 34672 939846",
      "phoneFormatted": "03467 / 29 39 846",
      "website": "http://www.weigl-immobilien.de/",
      "targetAudience": "alle",
      "source": "openstreetmap",
      "sourceId": "way/180883054"
    },
    {
      "id": "osm-way-180969105",
      "type": "government_office",
      "name": "Stadtverwaltung Eisleben",
      "city": "Lutherstadt Eisleben",
      "latitude": 51.528109,
      "longitude": 11.5421764,
      "targetAudience": "alle",
      "source": "openstreetmap",
      "sourceId": "way/180969105"
    },
    {
      "id": "osm-way-181195695",
      "type": "government_office",
      "name": "Wohnungsgenossenschaft \"Glück auf\" e.G.",
      "street": "Bertolt-Brecht-Straße 15",
      "postalCode": "06571",
      "city": "Roßleben-Wiehe",
      "latitude": 51.3034148,
      "longitude": 11.4313174,
      "phone": "+49 34672 65810",
      "phoneFormatted": "03467 / 26 58 10",
      "targetAudience": "alle",
      "source": "openstreetmap",
      "sourceId": "way/181195695",
      "operator": "Wohnungsgenossenschaft \"Glück auf\" e.G."
    },
    {
      "id": "osm-way-182928004",
      "type": "townhall",
      "name": "Rathaus",
      "city": "Mansfeld-Südharz",
      "latitude": 51.6699522,
      "longitude": 11.770856,
      "targetAudience": "alle",
      "source": "openstreetmap",
      "sourceId": "way/182928004"
    },
    {
      "id": "osm-way-183214566",
      "type": "government_office",
      "name": "Straßenverkehrsamt Mansfeld-Südharz",
      "street": "Alte Promenade 27",
      "postalCode": "06526",
      "city": "Sangerhausen",
      "latitude": 51.4714115,
      "longitude": 11.2964845,
      "website": "https://zulassungsstelle.de/mansfeldsuedharz/",
      "isBarrierFree": true,
      "targetAudience": "alle",
      "source": "openstreetmap",
      "sourceId": "way/183214566"
    },
    {
      "id": "osm-way-184297551",
      "type": "government_office",
      "name": "Raumzelle",
      "city": "Mansfeld-Südharz",
      "latitude": 51.2841497,
      "longitude": 10.9149531,
      "targetAudience": "alle",
      "source": "openstreetmap",
      "sourceId": "way/184297551"
    },
    {
      "id": "osm-way-197716611",
      "type": "government_office",
      "name": "Ortschaftsbüro",
      "city": "Mansfeld-Südharz",
      "latitude": 51.4851447,
      "longitude": 11.7761027,
      "targetAudience": "alle",
      "source": "openstreetmap",
      "sourceId": "way/197716611"
    },
    {
      "id": "osm-way-200669356",
      "type": "townhall",
      "name": "Stadt Mansfeld",
      "street": "Lutherstraße 9",
      "postalCode": "06343",
      "city": "Mansfeld",
      "latitude": 51.5926723,
      "longitude": 11.4514837,
      "targetAudience": "alle",
      "source": "openstreetmap",
      "sourceId": "way/200669356"
    },
    {
      "id": "osm-way-222377028",
      "type": "government_office",
      "name": "Gemeindeamt Alsdorf",
      "city": "Mansfeld-Südharz",
      "latitude": 51.5433449,
      "longitude": 11.4690126,
      "targetAudience": "alle",
      "source": "openstreetmap",
      "sourceId": "way/222377028"
    },
    {
      "id": "osm-way-226253788",
      "type": "townhall",
      "name": "Stadtverwaltung Roßleben",
      "street": "Schulplatz 6",
      "postalCode": "06571",
      "city": "Roßleben-Wiehe",
      "latitude": 51.2947355,
      "longitude": 11.4298758,
      "phone": "+49 34672 8630",
      "phoneFormatted": "03467 / 28 63 0",
      "website": "http://www.stadt-rossleben.de/",
      "email": "info@stadt-rossleben.de",
      "openingHours": "Mo 09:00-12:00; Tu 09:00-12:00,14:00-18:00; We off; Th 09:00-12:00,14:00-16:00; Fr 09:00-11:00; Sa-Su off",
      "isBarrierFree": true,
      "targetAudience": "alle",
      "source": "openstreetmap",
      "sourceId": "way/226253788"
    },
    {
      "id": "osm-way-227131343",
      "type": "townhall",
      "name": "Bürgerhaus",
      "city": "Mansfeld-Südharz",
      "latitude": 51.4764237,
      "longitude": 11.6344091,
      "targetAudience": "alle",
      "source": "openstreetmap",
      "sourceId": "way/227131343"
    },
    {
      "id": "osm-way-255207223",
      "type": "townhall",
      "name": "Rathaus",
      "city": "Mansfeld-Südharz",
      "latitude": 51.3787284,
      "longitude": 11.597407,
      "isBarrierFree": true,
      "targetAudience": "alle",
      "source": "openstreetmap",
      "sourceId": "way/255207223"
    },
    {
      "id": "osm-way-256627593",
      "type": "townhall",
      "name": "Rathaus Schraplau",
      "street": "Marktstraße 25",
      "postalCode": "06279",
      "city": "Schraplau",
      "latitude": 51.438517,
      "longitude": 11.6671034,
      "targetAudience": "alle",
      "source": "openstreetmap",
      "sourceId": "way/256627593"
    },
    {
      "id": "osm-way-262124262",
      "type": "government_office",
      "name": "Gemeindeverwaltung",
      "street": "Pfarrstraße 8",
      "postalCode": "06317",
      "city": "Seegebiet Mansfelder Land",
      "latitude": 51.4642136,
      "longitude": 11.6739914,
      "phone": "+49 34774 4440",
      "phoneFormatted": "03477 / 44 44 0",
      "website": "http://www.seegebiet-mansfelder-land.de/index.php?id=buergerundverwaltung0",
      "targetAudience": "alle",
      "source": "openstreetmap",
      "sourceId": "way/262124262"
    },
    {
      "id": "osm-way-266787321",
      "type": "townhall",
      "name": "Rathaus der Stadt Heringen/Helme",
      "street": "Straße der Einheit 100",
      "postalCode": "99765",
      "city": "Heringen/Helme",
      "latitude": 51.4473309,
      "longitude": 10.880893,
      "targetAudience": "alle",
      "source": "openstreetmap",
      "sourceId": "way/266787321",
      "operator": "Stadt Heringen/Helme"
    },
    {
      "id": "osm-way-316712377",
      "type": "townhall",
      "name": "Rathaus Röblingen",
      "street": "Pfarrstraße 8",
      "postalCode": "06317",
      "city": "Seegebiet Mansfelder Land",
      "latitude": 51.4640028,
      "longitude": 11.6738406,
      "targetAudience": "alle",
      "source": "openstreetmap",
      "sourceId": "way/316712377"
    },
    {
      "id": "osm-way-350653844",
      "type": "government_office",
      "name": "Thüringer Landesamt für Landwirtschaft und Ländlichen Raum - AFZ Bad Frankenhausen",
      "street": "Kyffhäuserstraße 44",
      "postalCode": "06567",
      "city": "Bad Frankenhausen/Kyffhäuser",
      "latitude": 51.3549625,
      "longitude": 11.0952611,
      "phone": "+49 361 574136-101",
      "phoneFormatted": "03615 / 74 13 6101",
      "website": "https://tlllr.thueringen.de/wir/standorte/badfrankenhausen",
      "email": "post.bfh@tlllr.thueringen.de",
      "targetAudience": "alle",
      "source": "openstreetmap",
      "sourceId": "way/350653844"
    },
    {
      "id": "osm-way-391878112",
      "type": "government_office",
      "name": "Gemeindebüro",
      "city": "Mansfeld-Südharz",
      "latitude": 51.5448451,
      "longitude": 11.688448,
      "targetAudience": "alle",
      "source": "openstreetmap",
      "sourceId": "way/391878112"
    },
    {
      "id": "osm-way-423473321",
      "type": "government_office",
      "name": "Revierförsterei Harzgerode",
      "city": "Mansfeld-Südharz",
      "latitude": 51.6624308,
      "longitude": 11.0462091,
      "targetAudience": "alle",
      "source": "openstreetmap",
      "sourceId": "way/423473321"
    },
    {
      "id": "osm-way-435774825",
      "type": "government_office",
      "name": "Eigenbetrieb Abfallwirtschaft Mansfeld-Südharz",
      "street": "Karl-Fischer-Straße 13",
      "postalCode": "06295",
      "city": "Lutherstadt Eisleben",
      "latitude": 51.5304688,
      "longitude": 11.5574459,
      "phone": "+49 3475 613300",
      "phoneFormatted": "03475 / 61 33 00",
      "website": "https://www.abfallwirtschaft-msh.de/",
      "openingHours": "Mo 08:30-15:00, Tu 08:30-17:30, We off \"keine Sprechzeit\", Th 08:30-15:00, Fr 08:30-12:00",
      "targetAudience": "alle",
      "source": "openstreetmap",
      "sourceId": "way/435774825"
    },
    {
      "id": "osm-way-459383553",
      "type": "townhall",
      "name": "Rathaus Nebra",
      "street": "Promenade 13",
      "city": "Nebra (Unstrut)",
      "latitude": 51.2872181,
      "longitude": 11.5793132,
      "targetAudience": "alle",
      "source": "openstreetmap",
      "sourceId": "way/459383553"
    },
    {
      "id": "osm-way-476099920",
      "type": "townhall",
      "name": "Rathaus Hauteroda",
      "city": "Mansfeld-Südharz",
      "latitude": 51.2646972,
      "longitude": 11.2772426,
      "targetAudience": "alle",
      "source": "openstreetmap",
      "sourceId": "way/476099920"
    },
    {
      "id": "osm-way-485493129",
      "type": "government_office",
      "name": "Büro Ortsbürgermeister",
      "street": "Uftrunger Hauptstraße 50",
      "postalCode": "06536",
      "city": "Südharz",
      "latitude": 51.4997113,
      "longitude": 10.9807343,
      "email": "uftrungen@freenet.de",
      "openingHours": "1. we md 17:00-19:00",
      "targetAudience": "alle",
      "source": "openstreetmap",
      "sourceId": "way/485493129",
      "operator": "Ralf Götze"
    },
    {
      "id": "osm-way-540043526",
      "type": "government_office",
      "name": "Gemeinde Wippra",
      "street": "Anger 3",
      "postalCode": "06526",
      "city": "Sangerhausen",
      "latitude": 51.5720993,
      "longitude": 11.2769198,
      "phone": "+49 34775 20097",
      "phoneFormatted": "03477 / 52 00 97",
      "website": "https://sangerhausen.de/ortsteile/wippra",
      "email": "wippra@ot.sangerhausen.de",
      "openingHours": "We[1] 09:30-11:30",
      "description": "Ehemalige Angerschule",
      "targetAudience": "alle",
      "source": "openstreetmap",
      "sourceId": "way/540043526"
    },
    {
      "id": "osm-way-543704377",
      "type": "townhall",
      "name": "Rathaus Großenehrich",
      "city": "Mansfeld-Südharz",
      "latitude": 51.250053,
      "longitude": 10.8315529,
      "targetAudience": "alle",
      "source": "openstreetmap",
      "sourceId": "way/543704377"
    },
    {
      "id": "osm-way-702379167",
      "type": "townhall",
      "name": "Rathaus",
      "street": "Marktplatz 1",
      "postalCode": "06493",
      "city": "Harzgerode",
      "latitude": 51.6414302,
      "longitude": 11.1424082,
      "targetAudience": "alle",
      "source": "openstreetmap",
      "sourceId": "way/702379167"
    },
    {
      "id": "osm-way-746899020",
      "type": "townhall",
      "name": "Gemeindeverwaltung",
      "street": "Hardtstraße 7",
      "postalCode": "99734",
      "city": "Nordhausen",
      "latitude": 51.5024649,
      "longitude": 10.8623487,
      "targetAudience": "alle",
      "source": "openstreetmap",
      "sourceId": "way/746899020"
    },
    {
      "id": "osm-way-1300034331",
      "type": "government_office",
      "name": "Kreisverwaltumg Mansfeld-Südharz, Haus III",
      "street": "Doktor-Wilhelm-Külz-Straße 12",
      "postalCode": "06526",
      "city": "Sangerhausen",
      "latitude": 51.477752,
      "longitude": 11.2982992,
      "phone": "+49 34645350",
      "phoneFormatted": "034645350",
      "website": "https://www.mansfeldsuedharz.de/unser-service-ihr-ansprechpartner/unsere-aemter/a-z",
      "openingHours": "Mo 08:30-15:00; Tu 08:30-17:30; We OFF; Th 08:30-15:00; Fr 08:30-12:00",
      "targetAudience": "alle",
      "source": "openstreetmap",
      "sourceId": "way/1300034331"
    }
  ]
}