{
  "meta": {
    "generated_at": "2026-01-27T22:30:00Z",
    "source": "deepscan_cleaned",
    "count": 1567,
    "fake_check": "PASSED"
  },
  "data": [
    {
      "id": "europa-rosarium-sangerhausen",
      "name": "Europa-Rosarium",
      "displayName": "Europa-Rosarium Sangerhausen",
      "category": "nature",
      "latitude": 51.4731,
      "longitude": 11.2936,
      "city": "Sangerhausen",
      "address": "Steinberger Weg 3, 06526 Sangerhausen",
      "description": "Weltgrößte Rosensammlung mit über 8.600 Rosensorten auf 12,5 Hektar. UNESCO-Welterbe-Kandidat.",
      "website": "https://www.europa-rosarium.de",
      "phone": "",
      "openingHours": "Mai-Okt: 9-18 Uhr",
      "tags": [
        "rose",
        "garten",
        "unesco",
        "familienfreundlich"
      ],
      "source": "unknown",
      "sourceId": ""
    },
    {
      "id": "schloss-mansfeld",
      "name": "Schloss Mansfeld",
      "displayName": "Schloss Mansfeld",
      "category": "castle",
      "latitude": 51.5972,
      "longitude": 11.4528,
      "city": "Mansfeld",
      "address": "Schlossberg 1, 06343 Mansfeld",
      "description": "Historisches Schloss mit Museum zur Geschichte des Mansfelder Bergbaus. Mittelalterlicher Ursprung.",
      "website": "",
      "phone": "",
      "openingHours": "Di-So 10-17 Uhr",
      "tags": [
        "schloss",
        "museum",
        "bergbau",
        "mittelalter"
      ],
      "source": "unknown",
      "sourceId": ""
    },
    {
      "id": "suesser-see",
      "name": "Süßer See",
      "displayName": "Süßer See",
      "category": "nature",
      "latitude": 51.4167,
      "longitude": 11.5167,
      "city": "Seeburg",
      "address": "",
      "description": "Beliebter Badesee mit Strandbad, Segeln, Surfen. Größter See in Sachsen-Anhalt.",
      "website": "",
      "phone": "",
      "openingHours": "Ganzjährig, Strandbad Mai-Sept",
      "tags": [
        "see",
        "baden",
        "wassersport",
        "strand"
      ],
      "source": "unknown",
      "sourceId": ""
    },
    {
      "id": "lutherstadt-eisleben-altstadt",
      "name": "Lutherstadt Eisleben Altstadt",
      "displayName": "Lutherstadt Eisleben - Altstadt",
      "category": "culture",
      "latitude": 51.5275,
      "longitude": 11.5481,
      "city": "Lutherstadt Eisleben",
      "address": "",
      "description": "UNESCO-Welterbe: Luthers Geburts- und Sterbehaus, historische Altstadt.",
      "website": "https://www.luthermuseen.de",
      "phone": "",
      "openingHours": "Museen: Di-So 10-17 Uhr",
      "tags": [
        "unesco",
        "luther",
        "welterbe",
        "museum"
      ],
      "source": "unknown",
      "sourceId": ""
    },
    {
      "id": "kyffhaeuser-denkmal",
      "name": "Kyffhäuser-Denkmal",
      "displayName": "Kyffhäuser-Denkmal",
      "category": "culture",
      "latitude": 51.3847,
      "longitude": 11.0547,
      "city": "Steinthaleben",
      "address": "",
      "description": "Monumentales Denkmal für Kaiser Wilhelm I. mit Barbarossa-Sage. Atemberaubender Ausblick.",
      "website": "",
      "phone": "",
      "openingHours": "April-Okt: 9-18 Uhr, Nov-März: 10-17 Uhr",
      "tags": [
        "denkmal",
        "aussicht",
        "barbarossa",
        "wandern"
      ],
      "source": "unknown",
      "sourceId": ""
    },
    {
      "id": "bergbaumuseum-roehrigschacht",
      "name": "Bergbaumuseum Röhrigschacht",
      "displayName": "Bergbaumuseum Röhrigschacht",
      "category": "museum",
      "latitude": 51.6447,
      "longitude": 11.4972,
      "city": "Wettelrode",
      "address": "",
      "description": "Authentisches Kupferschieferbergwerk mit Untertage-Führungen. UNESCO-Welterbe.",
      "website": "https://www.roehrigschacht.de",
      "phone": "",
      "openingHours": "April-Okt: Di-So 10-17 Uhr",
      "tags": [
        "bergbau",
        "museum",
        "untertage",
        "unesco"
      ],
      "source": "unknown",
      "sourceId": ""
    },
    {
      "id": "wippertalsperre",
      "name": "Wippertalsperre",
      "displayName": "Wippertalsperre",
      "category": "nature",
      "latitude": 51.3833,
      "longitude": 11.2167,
      "city": "Wippra",
      "address": "",
      "description": "Idyllische Talsperre mit Wanderwegen, Angeln, Bootfahren. Ruhiger Geheimtipp.",
      "website": "",
      "phone": "",
      "openingHours": "Ganzjährig",
      "tags": [
        "talsperre",
        "wandern",
        "angeln",
        "natur"
      ],
      "source": "unknown",
      "sourceId": ""
    },
    {
      "id": "allstedt-burg",
      "name": "Burg Allstedt",
      "displayName": "Burg und Schloss Allstedt",
      "category": "castle",
      "latitude": 51.3833,
      "longitude": 11.4333,
      "city": "Allstedt",
      "address": "",
      "description": "Mittelalterliche Burganlage mit Museum. Hier predigte Thomas Müntzer. Historische Bedeutung.",
      "website": "",
      "phone": "",
      "openingHours": "April-Okt: Di-So 10-17 Uhr",
      "tags": [
        "burg",
        "museum",
        "mittelalter",
        "müntzer"
      ],
      "source": "unknown",
      "sourceId": ""
    },
    {
      "id": "hettstedt-marktplatz",
      "name": "Hettstedt Marktplatz",
      "displayName": "Marktplatz Hettstedt",
      "category": "culture",
      "latitude": 51.6333,
      "longitude": 11.5,
      "city": "Hettstedt",
      "address": "",
      "description": "Historischer Marktplatz mit Roland-Statue und St. Gangolf-Kirche. Zentrum der Kupferstadt.",
      "website": "",
      "phone": "",
      "openingHours": "Ganzjährig",
      "tags": [
        "marktplatz",
        "historisch",
        "kirche",
        "stadtbummel"
      ],
      "source": "unknown",
      "sourceId": ""
    },
    {
      "id": "sangerhausen-altstadt",
      "name": "Sangerhausen Altstadt",
      "displayName": "Sangerhausen - Historische Altstadt",
      "category": "culture",
      "latitude": 51.4667,
      "longitude": 11.3,
      "city": "Sangerhausen",
      "address": "",
      "description": "Malerische Altstadt mit Fachwerkhäusern, Marienkirche, Ulrichkirche. Stadtbummel und Shopping.",
      "website": "",
      "phone": "",
      "openingHours": "Ganzjährig",
      "tags": [
        "altstadt",
        "fachwerk",
        "shopping",
        "stadtbummel"
      ],
      "source": "unknown",
      "sourceId": ""
    },
    {
      "id": "bad-frankenhausen-schiefturm",
      "name": "Schiefer Turm Bad Frankenhausen",
      "displayName": "Schiefer Turm Bad Frankenhausen",
      "category": "culture",
      "latitude": 51.3594,
      "longitude": 11.0992,
      "city": "Bad Frankenhausen",
      "address": "",
      "description": "Schiefster Turm Deutschlands (4,8° Neigung), übertrifft Pisa. Wahrzeichen der Stadt.",
      "website": "",
      "phone": "",
      "openingHours": "April-Okt: täglich 10-17 Uhr",
      "tags": [
        "turm",
        "schief",
        "wahrzeichen",
        "architektur"
      ],
      "source": "unknown",
      "sourceId": ""
    },
    {
      "id": "panorama-museum-bad-frankenhausen",
      "name": "Panorama Museum",
      "displayName": "Panorama Museum Bad Frankenhausen",
      "category": "museum",
      "latitude": 51.3528,
      "longitude": 11.1003,
      "city": "Bad Frankenhausen",
      "address": "",
      "description": "Monumentales Rundgemälde 'Frühbürgerliche Revolution' von Werner Tübke. Einzigartige Kunst.",
      "website": "https://www.panorama-museum.de",
      "phone": "",
      "openingHours": "Di-So 10-17 Uhr",
      "tags": [
        "museum",
        "kunst",
        "panorama",
        "tübke"
      ],
      "source": "unknown",
      "sourceId": ""
    },
    {
      "id": "heimatmuseum-hettstedt",
      "name": "Heimatmuseum Hettstedt",
      "displayName": "Heimatmuseum Hettstedt",
      "category": "museum",
      "latitude": 51.6328,
      "longitude": 11.4997,
      "city": "Hettstedt",
      "address": "",
      "description": "Stadtgeschichte, Kupferbergbau, Handwerk. Kompakte Ausstellung zur Region.",
      "website": "",
      "phone": "",
      "openingHours": "Mi, Sa 14-17 Uhr",
      "tags": [
        "museum",
        "heimat",
        "bergbau",
        "geschichte"
      ],
      "source": "unknown",
      "sourceId": ""
    },
    {
      "id": "museum-synagoge-eisleben",
      "name": "Museum Synagoge",
      "displayName": "Museum Alte Synagoge Eisleben",
      "category": "museum",
      "latitude": 51.5269,
      "longitude": 11.5492,
      "city": "Lutherstadt Eisleben",
      "address": "",
      "description": "Jüdische Geschichte in Eisleben. Erhaltene Synagoge mit Dauerausstellung.",
      "website": "",
      "phone": "",
      "openingHours": "Di-So 10-17 Uhr",
      "tags": [
        "museum",
        "jüdisch",
        "geschichte",
        "synagoge"
      ],
      "source": "unknown",
      "sourceId": ""
    },
    {
      "id": "spengler-museum-sangerhausen",
      "name": "Spengler-Museum",
      "displayName": "Spengler-Museum Sangerhausen",
      "category": "museum",
      "latitude": 51.4664,
      "longitude": 11.3003,
      "city": "Sangerhausen",
      "address": "",
      "description": "Stadtgeschichte, Archäologie, Naturkunde. Vielseitige Sammlung.",
      "website": "",
      "phone": "",
      "openingHours": "Di-So 10-17 Uhr",
      "tags": [
        "museum",
        "stadtgeschichte",
        "archäologie",
        "natur"
      ],
      "source": "unknown",
      "sourceId": ""
    },
    {
      "id": "luthers-geburtshaus",
      "name": "Luthers Geburtshaus",
      "displayName": "Luthers Geburtshaus Eisleben",
      "category": "museum",
      "latitude": 51.5278,
      "longitude": 11.5489,
      "city": "Lutherstadt Eisleben",
      "address": "",
      "description": "UNESCO-Welterbe. Geburtsort Martin Luthers mit Museum zur Reformationsgeschichte.",
      "website": "https://www.luthermuseen.de",
      "phone": "",
      "openingHours": "Di-So 10-17 Uhr",
      "tags": [
        "unesco",
        "luther",
        "welterbe",
        "reformation"
      ],
      "source": "unknown",
      "sourceId": ""
    },
    {
      "id": "luthers-sterbehaus",
      "name": "Luthers Sterbehaus",
      "displayName": "Luthers Sterbehaus Eisleben",
      "category": "museum",
      "latitude": 51.5271,
      "longitude": 11.5503,
      "city": "Lutherstadt Eisleben",
      "address": "",
      "description": "UNESCO-Welterbe. Sterbeort Martin Luthers mit Gedenkstätte.",
      "website": "https://www.luthermuseen.de",
      "phone": "",
      "openingHours": "Di-So 10-17 Uhr",
      "tags": [
        "unesco",
        "luther",
        "welterbe",
        "reformation"
      ],
      "source": "unknown",
      "sourceId": ""
    },
    {
      "id": "josephskreuz-stolberg",
      "name": "Josephskreuz",
      "displayName": "Josephskreuz Stolberg",
      "category": "nature",
      "latitude": 51.5686,
      "longitude": 10.9544,
      "city": "Stolberg",
      "address": "",
      "description": "Monumentales Doppelkreuz aus Eisen mit Aussichtsplattform. Fantastischer Harzblick.",
      "website": "",
      "phone": "",
      "openingHours": "April-Okt: täglich 10-18 Uhr",
      "tags": [
        "aussicht",
        "denkmal",
        "harz",
        "wandern"
      ],
      "source": "unknown",
      "sourceId": ""
    },
    {
      "id": "barbarossahoehle",
      "name": "Barbarossahöhle",
      "displayName": "Barbarossahöhle Rottleben",
      "category": "nature",
      "latitude": 51.38,
      "longitude": 11.0339,
      "city": "Rottleben",
      "address": "",
      "description": "Einzigartige Anhydrithöhle mit unterirdischen Seen. Sagen um Kaiser Barbarossa.",
      "website": "https://www.hoehle.de",
      "phone": "",
      "openingHours": "April-Okt: täglich 10-17 Uhr",
      "tags": [
        "höhle",
        "barbarossa",
        "sage",
        "unterirdisch"
      ],
      "source": "unknown",
      "sourceId": ""
    },
    {
      "id": "osm-node-282996930",
      "name": "Burger King",
      "displayName": "Burger King",
      "category": "imbiss",
      "latitude": 51.6904654,
      "longitude": 11.7674311,
      "city": "",
      "address": "",
      "description": "",
      "website": "",
      "phone": "",
      "openingHours": "Mo-Th 10:00-23:00, Fr,Sa 10:00-24:00, Su 10:00-23:00",
      "tags": [
        "fast_food"
      ],
      "source": "openstreetmap",
      "sourceId": ""
    },
    {
      "id": "osm-node-286733414",
      "name": "Selketaler Waldgasthof",
      "displayName": "Selketaler Waldgasthof",
      "category": "restaurant",
      "latitude": 51.6685784,
      "longitude": 11.1674032,
      "city": "Harzgerode",
      "address": "Vierter Hammer",
      "description": "",
      "website": "http://www.harz-ferienwohnungen.com/",
      "phone": "+49 39484 2715",
      "openingHours": "Sa-Su 13:00-17:00",
      "tags": [
        "apartment",
        "restaurant"
      ],
      "source": "openstreetmap",
      "sourceId": ""
    },
    {
      "id": "osm-node-288738233",
      "name": "Gartenhaus",
      "displayName": "Gartenhaus",
      "category": "restaurant",
      "latitude": 51.6781207,
      "longitude": 11.2833687,
      "city": "Falkenstein",
      "address": "Gartenhaus",
      "description": "",
      "website": "https://www.ritteressen-burg-falkenstein.de/gartenhaus-gastronomie/",
      "phone": "+49 34743 8174",
      "openingHours": "",
      "tags": [
        "restaurant"
      ],
      "source": "openstreetmap",
      "sourceId": ""
    },
    {
      "id": "osm-node-288758403",
      "name": "Waldcafé am Roßberg",
      "displayName": "Waldcafé am Roßberg",
      "category": "restaurant",
      "latitude": 51.5557323,
      "longitude": 11.3968936,
      "city": "",
      "address": "",
      "description": "",
      "website": "",
      "phone": "",
      "openingHours": "",
      "tags": [
        "restaurant"
      ],
      "source": "openstreetmap",
      "sourceId": ""
    },
    {
      "id": "osm-node-290174063",
      "name": "Restaurant Silberstreif",
      "displayName": "Restaurant Silberstreif",
      "category": "restaurant",
      "latitude": 51.5895843,
      "longitude": 10.9987723,
      "city": "Südharz",
      "address": "Schindelbruch",
      "description": "",
      "website": "https://www.silberstreif-restaurant.de/",
      "phone": "+49 34654 8080",
      "openingHours": "",
      "tags": [
        "restaurant"
      ],
      "source": "openstreetmap",
      "sourceId": ""
    },
    {
      "id": "osm-node-299408252",
      "name": "Trautmann",
      "displayName": "Trautmann",
      "category": "cafe",
      "latitude": 51.3581369,
      "longitude": 11.0998581,
      "city": "",
      "address": "",
      "description": "",
      "website": "",
      "phone": "",
      "openingHours": "Mo-Su 08:00-18:00",
      "tags": [
        "cafe"
      ],
      "source": "openstreetmap",
      "sourceId": ""
    },
    {
      "id": "osm-node-299435367",
      "name": "Haus der Werktätigen",
      "displayName": "Haus der Werktätigen",
      "category": "restaurant",
      "latitude": 51.3565101,
      "longitude": 11.0957717,
      "city": "",
      "address": "",
      "description": "",
      "website": "",
      "phone": "",
      "openingHours": "",
      "tags": [
        "restaurant"
      ],
      "source": "openstreetmap",
      "sourceId": ""
    },
    {
      "id": "osm-node-299435369",
      "name": "Fanal",
      "displayName": "Fanal",
      "category": "pub",
      "latitude": 51.3554452,
      "longitude": 11.0957344,
      "city": "",
      "address": "",
      "description": "",
      "website": "",
      "phone": "",
      "openingHours": "",
      "tags": [
        "pub"
      ],
      "source": "openstreetmap",
      "sourceId": ""
    },
    {
      "id": "osm-node-299939308",
      "name": "Eiscafe Schütze",
      "displayName": "Eiscafe Schütze",
      "category": "cafe",
      "latitude": 51.354747,
      "longitude": 11.0984899,
      "city": "",
      "address": "",
      "description": "",
      "website": "https://www.pension-zur-quelle.de/",
      "phone": "",
      "openingHours": "",
      "tags": [
        "cafe"
      ],
      "source": "openstreetmap",
      "sourceId": ""
    },
    {
      "id": "osm-node-300227149",
      "name": "Pizzeria Pasta",
      "displayName": "Pizzeria Pasta",
      "category": "imbiss",
      "latitude": 51.3556198,
      "longitude": 11.0958446,
      "city": "",
      "address": "",
      "description": "",
      "website": "",
      "phone": "",
      "openingHours": "",
      "tags": [
        "fast_food"
      ],
      "source": "openstreetmap",
      "sourceId": ""
    },
    {
      "id": "osm-node-300501568",
      "name": "Grabenmühle",
      "displayName": "Grabenmühle",
      "category": "restaurant",
      "latitude": 51.3578994,
      "longitude": 11.098211,
      "city": "",
      "address": "",
      "description": "",
      "website": "",
      "phone": "",
      "openingHours": "",
      "tags": [
        "restaurant"
      ],
      "source": "openstreetmap",
      "sourceId": ""
    },
    {
      "id": "osm-node-300540933",
      "name": "Quellgrund",
      "displayName": "Quellgrund",
      "category": "cafe",
      "latitude": 51.3596138,
      "longitude": 11.1029773,
      "city": "",
      "address": "",
      "description": "",
      "website": "",
      "phone": "",
      "openingHours": "",
      "tags": [
        "cafe"
      ],
      "source": "openstreetmap",
      "sourceId": ""
    },
    {
      "id": "osm-node-300566407",
      "name": "Wipp Restaurant",
      "displayName": "Wipp Restaurant",
      "category": "restaurant",
      "latitude": 51.5808063,
      "longitude": 11.2821181,
      "city": "Sangerhausen",
      "address": "Dr-Gerhard-Jacob-Weg",
      "description": "",
      "website": "https://www.wipperia-funpark.de/restaurant/das-wipp-restaurant",
      "phone": "+49 34775 20160",
      "openingHours": "",
      "tags": [
        "restaurant"
      ],
      "source": "openstreetmap",
      "sourceId": ""
    },
    {
      "id": "osm-node-300960458",
      "name": "Bergstüb'l am Josephskreuz",
      "displayName": "Bergstüb'l am Josephskreuz",
      "category": "restaurant",
      "latitude": 51.5804617,
      "longitude": 11.0052182,
      "city": "Südharz / OT Stolberg",
      "address": "Josephshöhe",
      "description": "",
      "website": "https://www.bergstuebl-josephskreuz.de/",
      "phone": "+49 34654 476",
      "openingHours": "Tu-Su 11:00-16:00; Mo off",
      "tags": [
        "restaurant"
      ],
      "source": "openstreetmap",
      "sourceId": ""
    },
    {
      "id": "osm-node-302033114",
      "name": "Restaurant Hufhaus",
      "displayName": "Restaurant Hufhaus",
      "category": "restaurant",
      "latitude": 51.5986005,
      "longitude": 10.8499167,
      "city": "Harztor",
      "address": "Hufhausstraße",
      "description": "Ausflugs- und Ferienhotel Hufhaus-Harzhoehe & Restaurant",
      "website": "https://www.hotel-hufhaus.de/",
      "phone": "+49 36331 48125",
      "openingHours": "",
      "tags": [
        "hotel",
        "restaurant"
      ],
      "source": "openstreetmap",
      "sourceId": ""
    },
    {
      "id": "osm-node-304571050",
      "name": "Grillimbiss Iris & Astrid",
      "displayName": "Grillimbiss Iris & Astrid",
      "category": "imbiss",
      "latitude": 51.6670483,
      "longitude": 11.7772457,
      "city": "Könnern",
      "address": "Leipziger Straße",
      "description": "",
      "website": "",
      "phone": "+49 34691 22038",
      "openingHours": "Mo-Fr 08:00-21:00; Sa 10:00-21:00",
      "tags": [
        "fast_food"
      ],
      "source": "openstreetmap",
      "sourceId": ""
    },
    {
      "id": "osm-node-317597529",
      "name": "Gst Hüneburg",
      "displayName": "Gst Hüneburg",
      "category": "pub",
      "latitude": 51.5213202,
      "longitude": 11.5155291,
      "city": "",
      "address": "",
      "description": "",
      "website": "",
      "phone": "",
      "openingHours": "",
      "tags": [
        "pub"
      ],
      "source": "openstreetmap",
      "sourceId": ""
    },
    {
      "id": "osm-node-321383229",
      "name": "Teutschenthal Pizza & Döner Schnitzel & Nudeln",
      "displayName": "Teutschenthal Pizza & Döner Schnitzel & Nudeln",
      "category": "imbiss",
      "latitude": 51.4475067,
      "longitude": 11.7974461,
      "city": "",
      "address": "",
      "description": "",
      "website": "",
      "phone": "",
      "openingHours": "",
      "tags": [
        "fast_food"
      ],
      "source": "openstreetmap",
      "sourceId": ""
    },
    {
      "id": "osm-node-321727059",
      "name": "Alte Hämmelei",
      "displayName": "Alte Hämmelei",
      "category": "restaurant",
      "latitude": 51.3576275,
      "longitude": 11.104834,
      "city": "Bad Frankenhausen/Kyffhäuser",
      "address": "Bornstraße",
      "description": "",
      "website": "",
      "phone": "",
      "openingHours": "Mo-Th 17:00-23:00; Fr-Su,PH 11:30-23:00",
      "tags": [
        "restaurant"
      ],
      "source": "openstreetmap",
      "sourceId": ""
    },
    {
      "id": "osm-node-325060942",
      "name": "Gyros Treff",
      "displayName": "Gyros Treff",
      "category": "imbiss",
      "latitude": 51.3535173,
      "longitude": 11.1009076,
      "city": "",
      "address": "",
      "description": "",
      "website": "",
      "phone": "",
      "openingHours": "",
      "tags": [
        "fast_food"
      ],
      "source": "openstreetmap",
      "sourceId": ""
    },
    {
      "id": "osm-node-325634695",
      "name": "Am Kelterberg",
      "displayName": "Am Kelterberg",
      "category": "restaurant",
      "latitude": 51.5008742,
      "longitude": 11.7345489,
      "city": "",
      "address": "",
      "description": "Am Kelterberg",
      "website": "",
      "phone": "",
      "openingHours": "Tu-Sa 09:00-22:00; Su 11:00-20:00",
      "tags": [
        "guest_house",
        "restaurant"
      ],
      "source": "openstreetmap",
      "sourceId": ""
    },
    {
      "id": "osm-node-325650656",
      "name": "Zur Weintraube",
      "displayName": "Zur Weintraube",
      "category": "restaurant",
      "latitude": 51.5034467,
      "longitude": 11.7334028,
      "city": "",
      "address": "",
      "description": "",
      "website": "https://weintraube-hoehnstedt.de",
      "phone": "+49 3460130786",
      "openingHours": "We-Fr 11:00-14:00, 17:00-22:00; Sa 11:00-22:00; Su,PH 11:00-16:00",
      "tags": [
        "guest_house",
        "restaurant"
      ],
      "source": "openstreetmap",
      "sourceId": ""
    },
    {
      "id": "osm-node-339603747",
      "name": "Weisser Hirsch",
      "displayName": "Weisser Hirsch",
      "category": "pub",
      "latitude": 51.5530577,
      "longitude": 11.4653656,
      "city": "",
      "address": "",
      "description": "",
      "website": "",
      "phone": "",
      "openingHours": "",
      "tags": [
        "pub"
      ],
      "source": "openstreetmap",
      "sourceId": ""
    },
    {
      "id": "osm-node-355927936",
      "name": "Grilleck Berga",
      "displayName": "Grilleck Berga",
      "category": "pub",
      "latitude": 51.4557152,
      "longitude": 11.001002,
      "city": "",
      "address": "",
      "description": "",
      "website": "",
      "phone": "",
      "openingHours": "",
      "tags": [
        "pub"
      ],
      "source": "openstreetmap",
      "sourceId": ""
    },
    {
      "id": "osm-node-355932002",
      "name": "Dönerimbiss",
      "displayName": "Dönerimbiss",
      "category": "imbiss",
      "latitude": 51.4584707,
      "longitude": 11.0139696,
      "city": "",
      "address": "",
      "description": "",
      "website": "",
      "phone": "",
      "openingHours": "",
      "tags": [
        "fast_food"
      ],
      "source": "openstreetmap",
      "sourceId": ""
    },
    {
      "id": "osm-node-358999915",
      "name": "Dorfkrug",
      "displayName": "Dorfkrug",
      "category": "restaurant",
      "latitude": 51.464738,
      "longitude": 10.9941148,
      "city": "Berga",
      "address": "Schenkstraße",
      "description": "",
      "website": "",
      "phone": "",
      "openingHours": "",
      "tags": [
        "restaurant"
      ],
      "source": "openstreetmap",
      "sourceId": ""
    },
    {
      "id": "osm-node-360233353",
      "name": "Thyra Fuchs Restaurant",
      "displayName": "Thyra Fuchs Restaurant",
      "category": "restaurant",
      "latitude": 51.4926816,
      "longitude": 10.9741113,
      "city": "Südharz",
      "address": "Thyra Fuchs",
      "description": "",
      "website": "http://www.thyra-fuchs-restaurant.de/",
      "phone": "+49 34653 727979",
      "openingHours": "Mo,Th 17:30-21:30; Fr-Su 11:30-22:00; Tu,We off",
      "tags": [
        "restaurant"
      ],
      "source": "openstreetmap",
      "sourceId": ""
    },
    {
      "id": "osm-node-389023338",
      "name": "Athen",
      "displayName": "Athen",
      "category": "restaurant",
      "latitude": 51.4257729,
      "longitude": 11.6727807,
      "city": "Obhausen",
      "address": "Pflaumenweg",
      "description": "",
      "website": "https://athen-obhausen.de/",
      "phone": "+49 34774 28215",
      "openingHours": "Tu,We,Fr 17:00-21:00; Th 12:00-21:00; Sa,Su,PH 11:30-14:30,17:00-21:00; Mo off",
      "tags": [
        "restaurant"
      ],
      "source": "openstreetmap",
      "sourceId": ""
    },
    {
      "id": "osm-node-392860197",
      "name": "Kaisergrund",
      "displayName": "Kaisergrund",
      "category": "restaurant",
      "latitude": 51.462448,
      "longitude": 11.0546701,
      "city": "",
      "address": "",
      "description": "",
      "website": "",
      "phone": "",
      "openingHours": "",
      "tags": [
        "restaurant"
      ],
      "source": "openstreetmap",
      "sourceId": ""
    },
    {
      "id": "osm-node-401309549",
      "name": "Hörchner",
      "displayName": "Hörchner",
      "category": "imbiss",
      "latitude": 51.3616856,
      "longitude": 10.8857562,
      "city": "",
      "address": "",
      "description": "",
      "website": "",
      "phone": "",
      "openingHours": "",
      "tags": [
        "fast_food"
      ],
      "source": "openstreetmap",
      "sourceId": ""
    },
    {
      "id": "osm-node-404357799",
      "name": "Zum Dorfkrug",
      "displayName": "Zum Dorfkrug",
      "category": "restaurant",
      "latitude": 51.5675226,
      "longitude": 11.3531915,
      "city": "Mansfeld",
      "address": "Obere Dorfstraße",
      "description": "",
      "website": "",
      "phone": "+49 34782 90450",
      "openingHours": "",
      "tags": [
        "restaurant"
      ],
      "source": "openstreetmap",
      "sourceId": ""
    },
    {
      "id": "osm-node-409013843",
      "name": "Schloßkeller",
      "displayName": "Schloßkeller",
      "category": "restaurant",
      "latitude": 51.6426442,
      "longitude": 11.1418308,
      "city": "",
      "address": "",
      "description": "",
      "website": "",
      "phone": "",
      "openingHours": "\"Dauerhaft geschlossen!\"",
      "tags": [
        "restaurant"
      ],
      "source": "openstreetmap",
      "sourceId": ""
    },
    {
      "id": "osm-node-409105963",
      "name": "Athos",
      "displayName": "Athos",
      "category": "restaurant",
      "latitude": 51.5258216,
      "longitude": 11.5534399,
      "city": "Lutherstadt Eisleben",
      "address": "Hallesche Straße",
      "description": "",
      "website": "https://www.athos-eisleben.de",
      "phone": "+49 3475 696200",
      "openingHours": "Tu-Su 11:30-14:30, 17:00-23:00",
      "tags": [
        "hotel",
        "restaurant"
      ],
      "source": "openstreetmap",
      "sourceId": ""
    },
    {
      "id": "osm-node-409161712",
      "name": "Zum Holländer",
      "displayName": "Zum Holländer",
      "category": "restaurant",
      "latitude": 51.4494317,
      "longitude": 11.6269654,
      "city": "",
      "address": "",
      "description": "",
      "website": "",
      "phone": "",
      "openingHours": "",
      "tags": [
        "restaurant"
      ],
      "source": "openstreetmap",
      "sourceId": ""
    },
    {
      "id": "osm-node-413112143",
      "name": "Vereinsheim",
      "displayName": "Vereinsheim",
      "category": "pub",
      "latitude": 51.4384056,
      "longitude": 11.0448008,
      "city": "",
      "address": "",
      "description": "",
      "website": "",
      "phone": "",
      "openingHours": "",
      "tags": [
        "pub"
      ],
      "source": "openstreetmap",
      "sourceId": ""
    },
    {
      "id": "osm-node-413720223",
      "name": "Zur Schenke",
      "displayName": "Zur Schenke",
      "category": "restaurant",
      "latitude": 51.4617771,
      "longitude": 10.9349351,
      "city": "",
      "address": "",
      "description": "",
      "website": "",
      "phone": "",
      "openingHours": "",
      "tags": [
        "restaurant"
      ],
      "source": "openstreetmap",
      "sourceId": ""
    },
    {
      "id": "osm-node-413720224",
      "name": "Zur Schweiz",
      "displayName": "Zur Schweiz",
      "category": "restaurant",
      "latitude": 51.4614081,
      "longitude": 10.9366088,
      "city": "Görsbach",
      "address": "Goethestraße",
      "description": "",
      "website": "",
      "phone": "+49 36333 60262",
      "openingHours": "",
      "tags": [
        "restaurant"
      ],
      "source": "openstreetmap",
      "sourceId": ""
    },
    {
      "id": "osm-node-413720226",
      "name": "Tenne",
      "displayName": "Tenne",
      "category": "pub",
      "latitude": 51.4615841,
      "longitude": 10.935268,
      "city": "",
      "address": "",
      "description": "",
      "website": "",
      "phone": "",
      "openingHours": "",
      "tags": [
        "pub"
      ],
      "source": "openstreetmap",
      "sourceId": ""
    },
    {
      "id": "osm-node-415924392",
      "name": "Gasthaus \"Zur Sägemühle\"",
      "displayName": "Gasthaus \"Zur Sägemühle\"",
      "category": "restaurant",
      "latitude": 51.5515951,
      "longitude": 10.8816898,
      "city": "Harztor",
      "address": "Sägemühle",
      "description": "",
      "website": "https://gasthaus-zur-saegemuehle.eatbu.com/",
      "phone": "+49 3631 469184",
      "openingHours": "Th 12:00-21:00; Fr 12:00-18:00; Sa 12:00-24:00; Su 12:00-18:00; Mo-We off; PH off",
      "tags": [
        "restaurant"
      ],
      "source": "openstreetmap",
      "sourceId": ""
    },
    {
      "id": "osm-node-416079951",
      "name": "Heidehaus",
      "displayName": "Heidehaus",
      "category": "restaurant",
      "latitude": 51.4066563,
      "longitude": 10.8089907,
      "city": "Sondershausen",
      "address": "Auf der Heide",
      "description": "",
      "website": "",
      "phone": "",
      "openingHours": "",
      "tags": [
        "restaurant"
      ],
      "source": "openstreetmap",
      "sourceId": ""
    },
    {
      "id": "osm-node-416079952",
      "name": "Zur Sonne",
      "displayName": "Zur Sonne",
      "category": "restaurant",
      "latitude": 51.3129908,
      "longitude": 10.8559274,
      "city": "Sondershausen",
      "address": "An der Bundesstraße",
      "description": "",
      "website": "",
      "phone": "",
      "openingHours": "",
      "tags": [
        "restaurant"
      ],
      "source": "openstreetmap",
      "sourceId": ""
    },
    {
      "id": "osm-node-420286785",
      "name": "Sportlerheim Wettin",
      "displayName": "Sportlerheim Wettin",
      "category": "restaurant",
      "latitude": 51.5872334,
      "longitude": 11.7977102,
      "city": "",
      "address": "",
      "description": "",
      "website": "",
      "phone": "",
      "openingHours": "",
      "tags": [
        "restaurant"
      ],
      "source": "openstreetmap",
      "sourceId": ""
    },
    {
      "id": "osm-node-420517826",
      "name": "Harzer Erlebnishof Grillenberg",
      "displayName": "Harzer Erlebnishof Grillenberg",
      "category": "restaurant",
      "latitude": 51.5364743,
      "longitude": 11.3084912,
      "city": "Sangerhausen",
      "address": "Hühnerberg",
      "description": "",
      "website": "https://harzererlebnishof.de/",
      "phone": "+49 3464 5800",
      "openingHours": "",
      "tags": [
        "guest_house",
        "restaurant"
      ],
      "source": "openstreetmap",
      "sourceId": ""
    },
    {
      "id": "osm-node-429784064",
      "name": "An der Krughütte",
      "displayName": "An der Krughütte",
      "category": "restaurant",
      "latitude": 51.5248504,
      "longitude": 11.5251044,
      "city": "",
      "address": "",
      "description": "",
      "website": "",
      "phone": "",
      "openingHours": "",
      "tags": [
        "restaurant"
      ],
      "source": "openstreetmap",
      "sourceId": ""
    },
    {
      "id": "osm-node-431565134",
      "name": "Steakhouse",
      "displayName": "Steakhouse",
      "category": "restaurant",
      "latitude": 51.5287918,
      "longitude": 11.5437588,
      "city": "",
      "address": "",
      "description": "",
      "website": "",
      "phone": "",
      "openingHours": "",
      "tags": [
        "restaurant"
      ],
      "source": "openstreetmap",
      "sourceId": ""
    },
    {
      "id": "osm-node-435242588",
      "name": "Katharinenschlößchen",
      "displayName": "Katharinenschlößchen",
      "category": "pub",
      "latitude": 51.5310696,
      "longitude": 11.5391343,
      "city": "",
      "address": "",
      "description": "",
      "website": "",
      "phone": "",
      "openingHours": "",
      "tags": [
        "pub"
      ],
      "source": "openstreetmap",
      "sourceId": ""
    },
    {
      "id": "osm-node-443329781",
      "name": "Eisfelder Talmühle",
      "displayName": "Eisfelder Talmühle",
      "category": "restaurant",
      "latitude": 51.6207511,
      "longitude": 10.8127771,
      "city": "",
      "address": "",
      "description": "",
      "website": "",
      "phone": "",
      "openingHours": "",
      "tags": [
        "restaurant"
      ],
      "source": "openstreetmap",
      "sourceId": ""
    },
    {
      "id": "osm-node-443337301",
      "name": "Landgasthaus \"Zur Herrenwiese\"",
      "displayName": "Landgasthaus \"Zur Herrenwiese\"",
      "category": "restaurant",
      "latitude": 51.5580828,
      "longitude": 10.8328865,
      "city": "Harztor",
      "address": "Rüdigsdorfer Weg",
      "description": "",
      "website": "",
      "phone": "+49 36331 498301",
      "openingHours": "We,Th,Su 12:00-18:00; Fr 12:00-20:00; Sa 11:30-20:00; Mo,Tu off; ",
      "tags": [
        "restaurant"
      ],
      "source": "openstreetmap",
      "sourceId": ""
    },
    {
      "id": "osm-node-448921487",
      "name": "Landgasthaus Meyer",
      "displayName": "Landgasthaus Meyer",
      "category": "restaurant",
      "latitude": 51.460622,
      "longitude": 11.117406,
      "city": "Südharz",
      "address": "Breite Straße",
      "description": "",
      "website": "http://www.landgasthausmeyer.de",
      "phone": "+49 34651 2865",
      "openingHours": "Tu-Su,PH 11:00-22:00; Mo off",
      "tags": [
        "restaurant"
      ],
      "source": "openstreetmap",
      "sourceId": ""
    },
    {
      "id": "osm-node-448973524",
      "name": "China Restaurant PALACE",
      "displayName": "China Restaurant PALACE",
      "category": "restaurant",
      "latitude": 51.5128496,
      "longitude": 11.568056,
      "city": "Lutherstadt Eisleben",
      "address": "Hauptstraße",
      "description": "",
      "website": "",
      "phone": "+49 3475 715672; +49 3475 633891",
      "openingHours": "Mo off; Tu-Su,PH 11:30-15:00,17:30-23:30",
      "tags": [
        "restaurant"
      ],
      "source": "openstreetmap",
      "sourceId": ""
    },
    {
      "id": "osm-node-449107423",
      "name": "Thüringer Hof",
      "displayName": "Thüringer Hof",
      "category": "restaurant",
      "latitude": 51.3015654,
      "longitude": 11.1833987,
      "city": "",
      "address": "",
      "description": "",
      "website": "",
      "phone": "",
      "openingHours": "",
      "tags": [
        "restaurant"
      ],
      "source": "openstreetmap",
      "sourceId": ""
    },
    {
      "id": "osm-node-449121675",
      "name": "Zum Strumpf",
      "displayName": "Zum Strumpf",
      "category": "imbiss",
      "latitude": 51.2819895,
      "longitude": 11.6507424,
      "city": "",
      "address": "",
      "description": "",
      "website": "",
      "phone": "",
      "openingHours": "PH,We-Su 09:00-20:00",
      "tags": [
        "fast_food"
      ],
      "source": "openstreetmap",
      "sourceId": ""
    },
    {
      "id": "osm-node-454383340",
      "name": "Mühlencafé",
      "displayName": "Mühlencafé",
      "category": "cafe",
      "latitude": 51.5723981,
      "longitude": 11.2726214,
      "city": "Sangerhausen",
      "address": "Poststraße",
      "description": "",
      "website": "https://www.muehlencafe-wippra.de/",
      "phone": "+49 34775 21704",
      "openingHours": "We-Su 14:00-18:00; Mo,Tu,PH off",
      "tags": [
        "cafe"
      ],
      "source": "openstreetmap",
      "sourceId": ""
    },
    {
      "id": "osm-node-477242114",
      "name": "Imbiss Birnbaumteich",
      "displayName": "Imbiss Birnbaumteich",
      "category": "imbiss",
      "latitude": 51.6142122,
      "longitude": 11.0888394,
      "city": "",
      "address": "",
      "description": "",
      "website": "",
      "phone": "",
      "openingHours": "",
      "tags": [
        "fast_food"
      ],
      "source": "openstreetmap",
      "sourceId": ""
    },
    {
      "id": "osm-node-497187875",
      "name": "Restaurant \"Gasthaus Kupfer\"",
      "displayName": "Restaurant \"Gasthaus Kupfer\"",
      "category": "restaurant",
      "latitude": 51.5742704,
      "longitude": 10.9562648,
      "city": "Südharz / OT Stolberg",
      "address": "Am Markt",
      "description": "",
      "website": "https://www.gasthaus-kupfer.de/",
      "phone": "+49 34654 422",
      "openingHours": "Tu-Su 07:00-24:00",
      "tags": [
        "restaurant"
      ],
      "source": "openstreetmap",
      "sourceId": ""
    },
    {
      "id": "osm-node-497187900",
      "name": "Harzstube",
      "displayName": "Harzstube",
      "category": "restaurant",
      "latitude": 51.5736382,
      "longitude": 10.9551443,
      "city": "",
      "address": "",
      "description": "",
      "website": "",
      "phone": "",
      "openingHours": "",
      "tags": [
        "restaurant"
      ],
      "source": "openstreetmap",
      "sourceId": ""
    },
    {
      "id": "osm-node-502399091",
      "name": "Weingut Rollsdorfer Mühle",
      "displayName": "Weingut Rollsdorfer Mühle",
      "category": "restaurant",
      "latitude": 51.4907225,
      "longitude": 11.7255634,
      "city": "",
      "address": "",
      "description": "Weinverkostung",
      "website": "http://www.weingut-rollsdorfer-muehle.de/weinverkostung/",
      "phone": "",
      "openingHours": "Mo-Fr 16:00-18:00; Sa,Su 11:00-19:00",
      "tags": [
        "restaurant"
      ],
      "source": "openstreetmap",
      "sourceId": ""
    },
    {
      "id": "osm-node-506578245",
      "name": "Pension Waldoase",
      "displayName": "Pension Waldoase",
      "category": "restaurant",
      "latitude": 51.6369746,
      "longitude": 11.0249451,
      "city": "",
      "address": "",
      "description": "",
      "website": "",
      "phone": "",
      "openingHours": "",
      "tags": [
        "restaurant"
      ],
      "source": "openstreetmap",
      "sourceId": ""
    },
    {
      "id": "osm-node-514803274",
      "name": "Deckert's",
      "displayName": "Deckert's",
      "category": "cafe",
      "latitude": 51.5084691,
      "longitude": 11.5801099,
      "city": "",
      "address": "",
      "description": "",
      "website": "",
      "phone": "",
      "openingHours": "",
      "tags": [
        "cafe"
      ],
      "source": "openstreetmap",
      "sourceId": ""
    },
    {
      "id": "osm-node-540960088",
      "name": "Gasthaus \"Zur Queste\"",
      "displayName": "Gasthaus \"Zur Queste\"",
      "category": "restaurant",
      "latitude": 51.4931507,
      "longitude": 11.1196577,
      "city": "Südharz / OT Questenberg",
      "address": "Questenberger Dorfstraße",
      "description": "Tisch-Bestellungen möglich jetzt per WhatsApp +49 17664435730",
      "website": "https://www.zurqueste.de/",
      "phone": "+49 34651 2792",
      "openingHours": "Mo-We 11:00-23:00; Fr-Su 11:00-23:00",
      "tags": [
        "restaurant"
      ],
      "source": "openstreetmap",
      "sourceId": ""
    },
    {
      "id": "osm-node-556384187",
      "name": "Stadtberg",
      "displayName": "Stadtberg",
      "category": "pub",
      "latitude": 51.5573545,
      "longitude": 11.5626128,
      "city": "",
      "address": "",
      "description": "",
      "website": "",
      "phone": "",
      "openingHours": "",
      "tags": [
        "pub"
      ],
      "source": "openstreetmap",
      "sourceId": ""
    },
    {
      "id": "osm-node-569460378",
      "name": "Promenadencafé",
      "displayName": "Promenadencafé",
      "category": "cafe",
      "latitude": 51.434878,
      "longitude": 11.0429415,
      "city": "Kelbra (Kyffhäuser)",
      "address": "Jochstraße",
      "description": "",
      "website": "",
      "phone": "",
      "openingHours": "Tu-Su 11:00-19:30",
      "tags": [
        "cafe"
      ],
      "source": "openstreetmap",
      "sourceId": ""
    },
    {
      "id": "osm-node-619181223",
      "name": "Harzimbiss \"Plan B\"",
      "displayName": "Harzimbiss \"Plan B\"",
      "category": "imbiss",
      "latitude": 51.6941286,
      "longitude": 11.0509818,
      "city": "",
      "address": "",
      "description": "Seasonal",
      "website": "",
      "phone": "",
      "openingHours": "",
      "tags": [
        "fast_food"
      ],
      "source": "openstreetmap",
      "sourceId": ""
    },
    {
      "id": "osm-node-650080278",
      "name": "Kirschcafé Tilleda",
      "displayName": "Kirschcafé Tilleda",
      "category": "restaurant",
      "latitude": 51.4193675,
      "longitude": 11.1340614,
      "city": "Kelbra (Kyffhäuser)",
      "address": "Ernst-Thälmann-Straße",
      "description": "",
      "website": "https://kirschcafe-kelbra.eatbu.com/?lang=de",
      "phone": "+49 34651 90285",
      "openingHours": "We-Fr 11:00-17:00; Sa-Su 11:00-17:00",
      "tags": [
        "restaurant"
      ],
      "source": "openstreetmap",
      "sourceId": ""
    },
    {
      "id": "osm-node-667709721",
      "name": "Feine Speiseschenke",
      "displayName": "Feine Speiseschenke",
      "category": "restaurant",
      "latitude": 51.5406383,
      "longitude": 10.8174251,
      "city": "Nordhausen",
      "address": "Winkelberg",
      "description": "",
      "website": "https://speiseschenke.de/",
      "phone": "+49 3631 4736490",
      "openingHours": "",
      "tags": [
        "restaurant"
      ],
      "source": "openstreetmap",
      "sourceId": ""
    },
    {
      "id": "osm-node-676707661",
      "name": "Landhaus Heppner",
      "displayName": "Landhaus Heppner",
      "category": "restaurant",
      "latitude": 51.5532265,
      "longitude": 11.7344927,
      "city": "Salzatal",
      "address": "Zum Kirchblick",
      "description": "",
      "website": "",
      "phone": "+49 34773 20474",
      "openingHours": "Mo-Su 10:00-22:00",
      "tags": [
        "restaurant"
      ],
      "source": "openstreetmap",
      "sourceId": ""
    },
    {
      "id": "osm-node-676720229",
      "name": "Fischer",
      "displayName": "Fischer",
      "category": "restaurant",
      "latitude": 51.5441195,
      "longitude": 11.6894631,
      "city": "",
      "address": "",
      "description": "",
      "website": "",
      "phone": "",
      "openingHours": "",
      "tags": [
        "restaurant"
      ],
      "source": "openstreetmap",
      "sourceId": ""
    },
    {
      "id": "osm-node-699737174",
      "name": "Wackelgrippe",
      "displayName": "Wackelgrippe",
      "category": "restaurant",
      "latitude": 51.4260921,
      "longitude": 11.0054886,
      "city": "",
      "address": "",
      "description": "",
      "website": "",
      "phone": "",
      "openingHours": "",
      "tags": [
        "restaurant"
      ],
      "source": "openstreetmap",
      "sourceId": ""
    },
    {
      "id": "osm-node-700174575",
      "name": "Schenke \"Zum Osterberg\"",
      "displayName": "Schenke \"Zum Osterberg\"",
      "category": "restaurant",
      "latitude": 51.5424343,
      "longitude": 11.6945999,
      "city": "",
      "address": "",
      "description": "",
      "website": "",
      "phone": "",
      "openingHours": "\"bis auf Weiteres geschlossen, Feierlichkeiten und Catering sind weiterhin möglich\"",
      "tags": [
        "restaurant"
      ],
      "source": "openstreetmap",
      "sourceId": ""
    },
    {
      "id": "osm-node-738006709",
      "name": "Cafe Sander",
      "displayName": "Cafe Sander",
      "category": "cafe",
      "latitude": 51.5743346,
      "longitude": 10.9569044,
      "city": "",
      "address": "",
      "description": "",
      "website": "",
      "phone": "+49 174 2163121",
      "openingHours": "Mo-Th 13:00-17:00; Sa-Su 13:30-18:00",
      "tags": [
        "cafe"
      ],
      "source": "openstreetmap",
      "sourceId": ""
    },
    {
      "id": "osm-node-762161887",
      "name": "Obermühle",
      "displayName": "Obermühle",
      "category": "restaurant",
      "latitude": 51.5032928,
      "longitude": 11.4072549,
      "city": "Blankenheim",
      "address": "Hauptstraße",
      "description": "Cafe und Gastwirtschaft",
      "website": "https://www.blankenheim-klosterrode.de/blankenheim/gewerbe/obermuehle/obermuehle.html",
      "phone": "+49 34659 60020",
      "openingHours": "Su,Mo 11:00-20:00; Th,Fr,Sa 11:00-22:00; Tu,We off",
      "tags": [
        "restaurant"
      ],
      "source": "openstreetmap",
      "sourceId": ""
    },
    {
      "id": "osm-node-775989016",
      "name": "Eis-Eck",
      "displayName": "Eis-Eck",
      "category": "cafe",
      "latitude": 51.3691995,
      "longitude": 10.852609,
      "city": "Sondershausen",
      "address": "Bahnhofstraße",
      "description": "",
      "website": "",
      "phone": "",
      "openingHours": "",
      "tags": [
        "cafe"
      ],
      "source": "openstreetmap",
      "sourceId": ""
    },
    {
      "id": "osm-node-778239605",
      "name": "Huseyen Polat Ali's Schnellimbiss",
      "displayName": "Huseyen Polat Ali's Schnellimbiss",
      "category": "imbiss",
      "latitude": 51.3678809,
      "longitude": 10.8632231,
      "city": "Sondershausen",
      "address": "Güntherstraße",
      "description": "",
      "website": "https://www.alis-schnellimbiss.de/",
      "phone": "",
      "openingHours": "Tu-Sa 10:30-22:00; Su,PH 12:00-22:00",
      "tags": [
        "fast_food"
      ],
      "source": "openstreetmap",
      "sourceId": ""
    },
    {
      "id": "osm-node-778260619",
      "name": "Pension & Wirtshaus Preuße",
      "displayName": "Pension & Wirtshaus Preuße",
      "category": "biergarten",
      "latitude": 51.3647805,
      "longitude": 11.041854,
      "city": "",
      "address": "",
      "description": "",
      "website": "",
      "phone": "",
      "openingHours": "",
      "tags": [
        "guest_house",
        "biergarten"
      ],
      "source": "openstreetmap",
      "sourceId": ""
    },
    {
      "id": "osm-node-778444223",
      "name": "Zur Klause",
      "displayName": "Zur Klause",
      "category": "restaurant",
      "latitude": 51.3695753,
      "longitude": 10.8704312,
      "city": "Sondershausen",
      "address": "Lange Straße",
      "description": "",
      "website": "",
      "phone": "",
      "openingHours": "",
      "tags": [
        "restaurant"
      ],
      "source": "openstreetmap",
      "sourceId": ""
    },
    {
      "id": "osm-node-794508765",
      "name": "Zum fahrenden Musikanten",
      "displayName": "Zum fahrenden Musikanten",
      "category": "restaurant",
      "latitude": 51.4660923,
      "longitude": 11.5138025,
      "city": "Lutherstadt Eisleben",
      "address": "Kastanienweg",
      "description": "",
      "website": "",
      "phone": "",
      "openingHours": "",
      "tags": [
        "restaurant"
      ],
      "source": "openstreetmap",
      "sourceId": ""
    },
    {
      "id": "osm-node-796735483",
      "name": "Burgtränke",
      "displayName": "Burgtränke",
      "category": "pub",
      "latitude": 51.483514,
      "longitude": 11.4904811,
      "city": "",
      "address": "",
      "description": "",
      "website": "",
      "phone": "",
      "openingHours": "",
      "tags": [
        "pub"
      ],
      "source": "openstreetmap",
      "sourceId": ""
    },
    {
      "id": "osm-node-808405201",
      "name": "Scheune65",
      "displayName": "Scheune65",
      "category": "bar",
      "latitude": 51.359334,
      "longitude": 11.1097007,
      "city": "Bad Frankenhausen/Kyffhäuser",
      "address": "Frauenstraße",
      "description": "",
      "website": "http://scheune65.de/",
      "phone": "+49 1763 870 3312",
      "openingHours": "We,Th 18:00-22:00; Fr,Sa 18:00-23:00",
      "tags": [
        "bar"
      ],
      "source": "openstreetmap",
      "sourceId": ""
    },
    {
      "id": "osm-node-845274940",
      "name": "Mensa",
      "displayName": "Mensa",
      "category": "imbiss",
      "latitude": 51.497718,
      "longitude": 10.8092635,
      "city": "",
      "address": "",
      "description": "",
      "website": "",
      "phone": "",
      "openingHours": "",
      "tags": [
        "fast_food"
      ],
      "source": "openstreetmap",
      "sourceId": ""
    },
    {
      "id": "osm-node-861875676",
      "name": "Iman Kebap Haus",
      "displayName": "Iman Kebap Haus",
      "category": "imbiss",
      "latitude": 51.6899491,
      "longitude": 10.8520305,
      "city": "Oberharz am Brocken",
      "address": "Breite Straße",
      "description": "",
      "website": "http://iman-kebap-haus.9gg.de",
      "phone": "+49 39459 18872",
      "openingHours": "Mo-Sa 10:00-22:00, Su,PH 12:00-22:00",
      "tags": [
        "fast_food"
      ],
      "source": "openstreetmap",
      "sourceId": ""
    },
    {
      "id": "osm-node-905777006",
      "name": "Restaurant Zur Höhle Heimkehle",
      "displayName": "Restaurant Zur Höhle Heimkehle",
      "category": "restaurant",
      "latitude": 51.4975067,
      "longitude": 10.9542801,
      "city": "Südharz / OT Uftrungen",
      "address": "An der Heimkehle",
      "description": "",
      "website": "https://www.restaurant-heimkehle.de",
      "phone": "+49 34653 727396",
      "openingHours": "We-Sa,PH 11:00-18:00; Su 11:00-17:00; Mo,Tu off",
      "tags": [
        "restaurant"
      ],
      "source": "openstreetmap",
      "sourceId": ""
    },
    {
      "id": "osm-node-922497998",
      "name": "Karzer",
      "displayName": "Karzer",
      "category": "bar",
      "latitude": 51.4976166,
      "longitude": 10.8091954,
      "city": "",
      "address": "",
      "description": "",
      "website": "https://www.karzer.eu/",
      "phone": "",
      "openingHours": "",
      "tags": [
        "bar"
      ],
      "source": "openstreetmap",
      "sourceId": ""
    },
    {
      "id": "osm-node-944459462",
      "name": "Zum Harzer Hexenteufel",
      "displayName": "Zum Harzer Hexenteufel",
      "category": "restaurant",
      "latitude": 51.6178319,
      "longitude": 10.9486145,
      "city": "",
      "address": "",
      "description": "",
      "website": "",
      "phone": "+49 34654 855711",
      "openingHours": "Tu,We,Sa 11:00-16:00; fr,Su 11:00-20:00; Th,PH off",
      "tags": [
        "restaurant"
      ],
      "source": "openstreetmap",
      "sourceId": ""
    },
    {
      "id": "osm-node-956274466",
      "name": "syrtaki",
      "displayName": "syrtaki",
      "category": "restaurant",
      "latitude": 51.6729481,
      "longitude": 11.7730227,
      "city": "",
      "address": "",
      "description": "",
      "website": "",
      "phone": "",
      "openingHours": "Tu-Su 11:28-14:30, 17:30-23:00",
      "tags": [
        "restaurant"
      ],
      "source": "openstreetmap",
      "sourceId": ""
    },
    {
      "id": "osm-node-1007327674",
      "name": "Querfurter Hof",
      "displayName": "Querfurter Hof",
      "category": "restaurant",
      "latitude": 51.3801569,
      "longitude": 11.6003831,
      "city": "Querfurt",
      "address": "Merseburger Straße",
      "description": "",
      "website": "",
      "phone": "+49 34771 5240",
      "openingHours": "Mo-We 18:00-22:00; Fr, Sa 18:00-22:30",
      "tags": [
        "hotel",
        "restaurant"
      ],
      "source": "openstreetmap",
      "sourceId": ""
    },
    {
      "id": "osm-node-1008109694",
      "name": "LaSosta",
      "displayName": "LaSosta",
      "category": "restaurant",
      "latitude": 51.3794018,
      "longitude": 11.5990114,
      "city": "",
      "address": "Graben",
      "description": "",
      "website": "",
      "phone": "+49 34771 41727",
      "openingHours": "Tu-Fr 11:00-14:30,17:00-23:00; Sa,Su 12:00-23:00; PH 12:00-23:00",
      "tags": [
        "restaurant"
      ],
      "source": "openstreetmap",
      "sourceId": ""
    },
    {
      "id": "osm-node-1012278799",
      "name": "Gulaschkanone",
      "displayName": "Gulaschkanone",
      "category": "imbiss",
      "latitude": 51.6138063,
      "longitude": 11.535216,
      "city": "",
      "address": "",
      "description": "",
      "website": "",
      "phone": "",
      "openingHours": "",
      "tags": [
        "fast_food"
      ],
      "source": "openstreetmap",
      "sourceId": ""
    },
    {
      "id": "osm-node-1012285211",
      "name": "Hahndorfs Gulaschkanone",
      "displayName": "Hahndorfs Gulaschkanone",
      "category": "imbiss",
      "latitude": 51.6737442,
      "longitude": 11.4639082,
      "city": "",
      "address": "",
      "description": "",
      "website": "",
      "phone": "",
      "openingHours": "",
      "tags": [
        "fast_food"
      ],
      "source": "openstreetmap",
      "sourceId": ""
    },
    {
      "id": "osm-node-1012285213",
      "name": "Hahndorfs Gulaschkanone",
      "displayName": "Hahndorfs Gulaschkanone",
      "category": "imbiss",
      "latitude": 51.6340783,
      "longitude": 11.5663759,
      "city": "",
      "address": "",
      "description": "",
      "website": "",
      "phone": "",
      "openingHours": "",
      "tags": [
        "fast_food"
      ],
      "source": "openstreetmap",
      "sourceId": ""
    },
    {
      "id": "osm-node-1012285215",
      "name": "Hahndorfs Gulaschkanone",
      "displayName": "Hahndorfs Gulaschkanone",
      "category": "imbiss",
      "latitude": 51.6220633,
      "longitude": 11.5008039,
      "city": "",
      "address": "",
      "description": "",
      "website": "",
      "phone": "",
      "openingHours": "",
      "tags": [
        "fast_food"
      ],
      "source": "openstreetmap",
      "sourceId": ""
    },
    {
      "id": "osm-node-1016330382",
      "name": "El Greko",
      "displayName": "El Greko",
      "category": "restaurant",
      "latitude": 51.3791654,
      "longitude": 11.5976741,
      "city": "Querfurt",
      "address": "Tränkstraße",
      "description": "",
      "website": "https://www.taverne-elgreco.de",
      "phone": "+49 34771 429983",
      "openingHours": "",
      "tags": [
        "restaurant"
      ],
      "source": "openstreetmap",
      "sourceId": ""
    },
    {
      "id": "osm-node-1017976102",
      "name": "Cafe Lampe",
      "displayName": "Cafe Lampe",
      "category": "cafe",
      "latitude": 51.4757143,
      "longitude": 11.2971551,
      "city": "Sangerhausen",
      "address": "An der Gonna",
      "description": "",
      "website": "http://www.baeckerlampe.de",
      "phone": "+49 3464 342424",
      "openingHours": "Mo-Fr 07:00-18:00; Sa,Su 08:00-18:00",
      "tags": [
        "cafe"
      ],
      "source": "openstreetmap",
      "sourceId": ""
    },
    {
      "id": "osm-node-1020963539",
      "name": "Zur Wetterhexe",
      "displayName": "Zur Wetterhexe",
      "category": "imbiss",
      "latitude": 51.3831681,
      "longitude": 11.4554984,
      "city": "",
      "address": "",
      "description": "",
      "website": "",
      "phone": "",
      "openingHours": "",
      "tags": [
        "fast_food"
      ],
      "source": "openstreetmap",
      "sourceId": ""
    },
    {
      "id": "osm-node-1036022412",
      "name": "Waldcafe Hettstedt",
      "displayName": "Waldcafe Hettstedt",
      "category": "restaurant",
      "latitude": 51.6626261,
      "longitude": 11.5054552,
      "city": "",
      "address": "",
      "description": "",
      "website": "https://www.waldcafe-hettstedt.de/",
      "phone": "+49 3476 851071",
      "openingHours": "Mo-Fr 11:30-23:00, Sa 11:00-01:00, Su 10:00-23:00",
      "tags": [
        "restaurant"
      ],
      "source": "openstreetmap",
      "sourceId": ""
    },
    {
      "id": "osm-node-1115591783",
      "name": "Bachschenke",
      "displayName": "Bachschenke",
      "category": "pub",
      "latitude": 51.3780159,
      "longitude": 11.592618,
      "city": "",
      "address": "",
      "description": "",
      "website": "",
      "phone": "",
      "openingHours": "",
      "tags": [
        "pub"
      ],
      "source": "openstreetmap",
      "sourceId": ""
    },
    {
      "id": "osm-node-1115763669",
      "name": "Ristorante Leonardo",
      "displayName": "Ristorante Leonardo",
      "category": "restaurant",
      "latitude": 51.3733643,
      "longitude": 10.8602519,
      "city": "Sondershausen",
      "address": "Im Loh",
      "description": "",
      "website": "",
      "phone": "+493632 6 67 82 66",
      "openingHours": "",
      "tags": [
        "restaurant"
      ],
      "source": "openstreetmap",
      "sourceId": ""
    },
    {
      "id": "osm-node-1115785898",
      "name": "Zur Sonne",
      "displayName": "Zur Sonne",
      "category": "restaurant",
      "latitude": 51.3700999,
      "longitude": 10.8643092,
      "city": "Sondershausen",
      "address": "Conrad-Röntgen-Straße",
      "description": "",
      "website": "",
      "phone": "",
      "openingHours": "",
      "tags": [
        "restaurant"
      ],
      "source": "openstreetmap",
      "sourceId": ""
    },
    {
      "id": "osm-node-1169909880",
      "name": "Schmidt's Eisverkauf",
      "displayName": "Schmidt's Eisverkauf",
      "category": "eiscafe",
      "latitude": 51.4387084,
      "longitude": 11.3071276,
      "city": "",
      "address": "",
      "description": "",
      "website": "",
      "phone": "",
      "openingHours": "",
      "tags": [
        "ice_cream"
      ],
      "source": "openstreetmap",
      "sourceId": ""
    },
    {
      "id": "osm-node-1261155549",
      "name": "Gasthof Zum Löwen",
      "displayName": "Gasthof Zum Löwen",
      "category": "restaurant",
      "latitude": 51.6644308,
      "longitude": 11.5245763,
      "city": "Arnstein",
      "address": "Hardenbergstraße",
      "description": "",
      "website": "https://de.restaurantguru.com/Gaststaette-Zum-Lowen-Wiederstedt",
      "phone": "+49 3476 553030",
      "openingHours": "Tu-Sa 17:00-23:00",
      "tags": [
        "restaurant"
      ],
      "source": "openstreetmap",
      "sourceId": ""
    },
    {
      "id": "osm-node-1261194818",
      "name": "Flying Pizza",
      "displayName": "Flying Pizza",
      "category": "imbiss",
      "latitude": 51.6447423,
      "longitude": 11.5107979,
      "city": "Hettstedt",
      "address": "Wilhelmstraße",
      "description": "",
      "website": "https://www.flying-pizza.de/hettstedt/",
      "phone": "",
      "openingHours": "Mo-Fr 11:00-14:00; Mo-Th 17:00-22:00; Fr,Sa 17:00-22:30; Su,PH 17:00-22:00",
      "tags": [
        "fast_food"
      ],
      "source": "openstreetmap",
      "sourceId": ""
    },
    {
      "id": "osm-node-1265751441",
      "name": "Grünes Röckchen",
      "displayName": "Grünes Röckchen",
      "category": "restaurant",
      "latitude": 51.6851314,
      "longitude": 11.4038543,
      "city": "",
      "address": "",
      "description": "",
      "website": "",
      "phone": "",
      "openingHours": "",
      "tags": [
        "restaurant"
      ],
      "source": "openstreetmap",
      "sourceId": ""
    },
    {
      "id": "osm-node-1272204042",
      "name": "Weidensol",
      "displayName": "Weidensol",
      "category": "restaurant",
      "latitude": 51.6551666,
      "longitude": 11.524194,
      "city": "Hettstedt",
      "address": "Promenade",
      "description": "",
      "website": "http://www.weidensol-hettstedt.de",
      "phone": "+49 3476 810778",
      "openingHours": "",
      "tags": [
        "restaurant"
      ],
      "source": "openstreetmap",
      "sourceId": ""
    },
    {
      "id": "osm-node-1309814840",
      "name": "Jägerklause",
      "displayName": "Jägerklause",
      "category": "restaurant",
      "latitude": 51.3469339,
      "longitude": 11.5152885,
      "city": "",
      "address": "",
      "description": "",
      "website": "",
      "phone": "",
      "openingHours": "",
      "tags": [
        "restaurant"
      ],
      "source": "openstreetmap",
      "sourceId": ""
    },
    {
      "id": "osm-node-1327386864",
      "name": "Eiscafe Valentino",
      "displayName": "Eiscafe Valentino",
      "category": "eiscafe",
      "latitude": 51.3709354,
      "longitude": 10.8757632,
      "city": "Sondershausen",
      "address": "Johann-Karl-Wezel-Straße",
      "description": "",
      "website": "",
      "phone": "",
      "openingHours": "Tu-Fr 09:00-19:00; Sa 10:00-13:00",
      "tags": [
        "ice_cream"
      ],
      "source": "openstreetmap",
      "sourceId": ""
    },
    {
      "id": "osm-node-1345575369",
      "name": "Gaststätte Felsenkeller",
      "displayName": "Gaststätte Felsenkeller",
      "category": "restaurant",
      "latitude": 51.480455,
      "longitude": 10.9047008,
      "city": "Urbach",
      "address": "Am Felsenkeller",
      "description": "",
      "website": "http://striebecks-felsenkeller.de/",
      "phone": "+49 36333 60 850",
      "openingHours": "",
      "tags": [
        "restaurant"
      ],
      "source": "openstreetmap",
      "sourceId": ""
    },
    {
      "id": "osm-node-1354670788",
      "name": "Sportlerheim",
      "displayName": "Sportlerheim",
      "category": "restaurant",
      "latitude": 51.407947,
      "longitude": 11.4056612,
      "city": "Allstedt",
      "address": "Schloßstraße",
      "description": "",
      "website": "",
      "phone": "+49 34652 754",
      "openingHours": "",
      "tags": [
        "restaurant"
      ],
      "source": "openstreetmap",
      "sourceId": ""
    },
    {
      "id": "osm-node-1356879875",
      "name": "Bergmanns Stube",
      "displayName": "Bergmanns Stube",
      "category": "restaurant",
      "latitude": 51.5172472,
      "longitude": 11.2821726,
      "city": "",
      "address": "",
      "description": "",
      "website": "",
      "phone": "",
      "openingHours": "We-Su 11:00-16:00",
      "tags": [
        "restaurant"
      ],
      "source": "openstreetmap",
      "sourceId": ""
    },
    {
      "id": "osm-node-1392576479",
      "name": "Valentino",
      "displayName": "Valentino",
      "category": "eiscafe",
      "latitude": 51.3700594,
      "longitude": 10.8698672,
      "city": "",
      "address": "",
      "description": "",
      "website": "",
      "phone": "",
      "openingHours": "",
      "tags": [
        "ice_cream"
      ],
      "source": "openstreetmap",
      "sourceId": ""
    },
    {
      "id": "osm-node-1393498901",
      "name": "Pille",
      "displayName": "Pille",
      "category": "cafe",
      "latitude": 51.3702029,
      "longitude": 10.8711676,
      "city": "Sondershausen",
      "address": "Hauptstraße",
      "description": "",
      "website": "http://www.cafe-pille.de/",
      "phone": "+49 3632 6665335",
      "openingHours": "Tu-Sa 09:00-18:00; Su 13:00-18:00",
      "tags": [
        "cafe"
      ],
      "source": "openstreetmap",
      "sourceId": ""
    },
    {
      "id": "osm-node-1393522311",
      "name": "Tipp+Coffee",
      "displayName": "Tipp+Coffee",
      "category": "cafe",
      "latitude": 51.3704289,
      "longitude": 10.8683136,
      "city": "",
      "address": "",
      "description": "",
      "website": "",
      "phone": "",
      "openingHours": "",
      "tags": [
        "cafe"
      ],
      "source": "openstreetmap",
      "sourceId": ""
    },
    {
      "id": "osm-node-1413099163",
      "name": "Gasthaus Zur Scheune",
      "displayName": "Gasthaus Zur Scheune",
      "category": "restaurant",
      "latitude": 51.4540224,
      "longitude": 11.5054107,
      "city": "Lutherstadt Eisleben",
      "address": "Allstedter Straße",
      "description": "",
      "website": "http://www.reiter-osterhausen.de/",
      "phone": "+49 34776 90070",
      "openingHours": "Mo off; Tu-Fr 16:00-24:00; Sa 16:00-01:00, Su 10:00-14:00,16:30-22:00",
      "tags": [
        "guest_house",
        "restaurant"
      ],
      "source": "openstreetmap",
      "sourceId": ""
    },
    {
      "id": "osm-node-1460418254",
      "name": "Döner und Pizzahaus",
      "displayName": "Döner und Pizzahaus",
      "category": "imbiss",
      "latitude": 51.6045139,
      "longitude": 11.4647097,
      "city": "",
      "address": "",
      "description": "",
      "website": "",
      "phone": "",
      "openingHours": "",
      "tags": [
        "fast_food"
      ],
      "source": "openstreetmap",
      "sourceId": ""
    },
    {
      "id": "osm-node-1460426776",
      "name": "Willys Imbiss",
      "displayName": "Willys Imbiss",
      "category": "imbiss",
      "latitude": 51.594028,
      "longitude": 11.4547483,
      "city": "",
      "address": "Postplatz",
      "description": "",
      "website": "",
      "phone": "",
      "openingHours": "",
      "tags": [
        "fast_food"
      ],
      "source": "openstreetmap",
      "sourceId": ""
    },
    {
      "id": "osm-node-1477492518",
      "name": "Zur Dahlie",
      "displayName": "Zur Dahlie",
      "category": "restaurant",
      "latitude": 51.5080402,
      "longitude": 10.8088161,
      "city": "",
      "address": "",
      "description": "",
      "website": "",
      "phone": "",
      "openingHours": "",
      "tags": [
        "restaurant"
      ],
      "source": "openstreetmap",
      "sourceId": ""
    },
    {
      "id": "osm-node-1477570521",
      "name": "Berliner Imbiss",
      "displayName": "Berliner Imbiss",
      "category": "imbiss",
      "latitude": 51.5019307,
      "longitude": 10.8196467,
      "city": "Nordhausen",
      "address": "Conrad-Fromann-Straße",
      "description": "",
      "website": "",
      "phone": "+49 3631 999 8813",
      "openingHours": "Mo-Su 11:00-21:00",
      "tags": [
        "fast_food"
      ],
      "source": "openstreetmap",
      "sourceId": ""
    },
    {
      "id": "osm-node-1479537289",
      "name": "Himmelsscheibe",
      "displayName": "Himmelsscheibe",
      "category": "restaurant",
      "latitude": 51.2859787,
      "longitude": 11.5761212,
      "city": "Nebra (Unstrut)",
      "address": "Schloßhof",
      "description": "",
      "website": "",
      "phone": "",
      "openingHours": "",
      "tags": [
        "restaurant"
      ],
      "source": "openstreetmap",
      "sourceId": ""
    },
    {
      "id": "osm-node-1485430265",
      "name": "Zur Schönen Aussicht",
      "displayName": "Zur Schönen Aussicht",
      "category": "restaurant",
      "latitude": 51.5090066,
      "longitude": 10.80457,
      "city": "",
      "address": "",
      "description": "",
      "website": "",
      "phone": "",
      "openingHours": "",
      "tags": [
        "restaurant"
      ],
      "source": "openstreetmap",
      "sourceId": ""
    },
    {
      "id": "osm-node-1496114017",
      "name": "Zum Storchennest",
      "displayName": "Zum Storchennest",
      "category": "restaurant",
      "latitude": 51.2662279,
      "longitude": 11.4866415,
      "city": "",
      "address": "",
      "description": "",
      "website": "",
      "phone": "",
      "openingHours": "",
      "tags": [
        "restaurant"
      ],
      "source": "openstreetmap",
      "sourceId": ""
    },
    {
      "id": "osm-node-1499848846",
      "name": "Zum Alten Stammer",
      "displayName": "Zum Alten Stammer",
      "category": "pub",
      "latitude": 51.6194914,
      "longitude": 11.740528,
      "city": "",
      "address": "",
      "description": "",
      "website": "",
      "phone": "",
      "openingHours": "",
      "tags": [
        "pub"
      ],
      "source": "openstreetmap",
      "sourceId": ""
    },
    {
      "id": "osm-node-1510417089",
      "name": "Burgcafe",
      "displayName": "Burgcafe",
      "category": "cafe",
      "latitude": 51.3772427,
      "longitude": 11.593835,
      "city": "",
      "address": "",
      "description": "",
      "website": "",
      "phone": "",
      "openingHours": "",
      "tags": [
        "cafe"
      ],
      "source": "openstreetmap",
      "sourceId": ""
    },
    {
      "id": "osm-node-1516797778",
      "name": "Zur Forelle",
      "displayName": "Zur Forelle",
      "category": "restaurant",
      "latitude": 51.4884248,
      "longitude": 11.7044149,
      "city": "Seegebiet Mansfelder Land",
      "address": "Straße der Freundschaft",
      "description": "",
      "website": "https://www.forelle-seeburg.de/gasthaus",
      "phone": "+49 34774 28242",
      "openingHours": "Mo-Su,PH 11:00+",
      "tags": [
        "restaurant"
      ],
      "source": "openstreetmap",
      "sourceId": ""
    },
    {
      "id": "osm-node-1516797794",
      "name": "Restaurant Zahn",
      "displayName": "Restaurant Zahn",
      "category": "restaurant",
      "latitude": 51.489951,
      "longitude": 11.6718151,
      "city": "",
      "address": "",
      "description": "",
      "website": "",
      "phone": "",
      "openingHours": "",
      "tags": [
        "restaurant"
      ],
      "source": "openstreetmap",
      "sourceId": ""
    },
    {
      "id": "osm-node-1532893309",
      "name": "Wesemanns Fischerstübchen",
      "displayName": "Wesemanns Fischerstübchen",
      "category": "restaurant",
      "latitude": 51.5759566,
      "longitude": 11.2807085,
      "city": "Sangerhausen",
      "address": "Wippraer Bahnhofstraße",
      "description": "",
      "website": "http://www.wesemanns-fischerstuebchen.de/",
      "phone": "+49 34775 819083",
      "openingHours": "We-Th 11:00-14:00,17:30-20:00; Fr-Su 11:00-14:00,17:30-21:00; Mo,Tu off",
      "tags": [
        "restaurant"
      ],
      "source": "openstreetmap",
      "sourceId": ""
    },
    {
      "id": "osm-node-1532969034",
      "name": "Zum Anker",
      "displayName": "Zum Anker",
      "category": "restaurant",
      "latitude": 51.5516166,
      "longitude": 11.4872645,
      "city": "",
      "address": "Hauptstraße",
      "description": "",
      "website": "",
      "phone": "",
      "openingHours": "",
      "tags": [
        "restaurant"
      ],
      "source": "openstreetmap",
      "sourceId": ""
    },
    {
      "id": "osm-node-1540650840",
      "name": "Freizeitzentrum Kastanienhof",
      "displayName": "Freizeitzentrum Kastanienhof",
      "category": "restaurant",
      "latitude": 51.6945937,
      "longitude": 11.4593719,
      "city": "",
      "address": "",
      "description": "",
      "website": "",
      "phone": "",
      "openingHours": "",
      "tags": [
        "restaurant"
      ],
      "source": "openstreetmap",
      "sourceId": ""
    },
    {
      "id": "osm-node-1616766339",
      "name": "Chi Asia Cuisine",
      "displayName": "Chi Asia Cuisine",
      "category": "restaurant",
      "latitude": 51.3536028,
      "longitude": 11.0984475,
      "city": "",
      "address": "",
      "description": "",
      "website": "",
      "phone": "",
      "openingHours": "",
      "tags": [
        "restaurant"
      ],
      "source": "openstreetmap",
      "sourceId": ""
    },
    {
      "id": "osm-node-1616766403",
      "name": "Restaurant Stadtpark",
      "displayName": "Restaurant Stadtpark",
      "category": "restaurant",
      "latitude": 51.3609744,
      "longitude": 11.0969482,
      "city": "",
      "address": "",
      "description": "",
      "website": "",
      "phone": "",
      "openingHours": "Tu-Su 11:30+",
      "tags": [
        "restaurant"
      ],
      "source": "openstreetmap",
      "sourceId": ""
    },
    {
      "id": "osm-node-1654134212",
      "name": "Asia-Bistro",
      "displayName": "Asia-Bistro",
      "category": "imbiss",
      "latitude": 51.370405,
      "longitude": 10.8684827,
      "city": "",
      "address": "",
      "description": "",
      "website": "",
      "phone": "",
      "openingHours": "Mo-Fr 11:00-19:00; Sa 11:00-15:00,17:00-19:00",
      "tags": [
        "fast_food"
      ],
      "source": "openstreetmap",
      "sourceId": ""
    },
    {
      "id": "osm-node-1674785130",
      "name": "Restaurant Am Park",
      "displayName": "Restaurant Am Park",
      "category": "restaurant",
      "latitude": 51.5836082,
      "longitude": 11.4931022,
      "city": "",
      "address": "",
      "description": "",
      "website": "",
      "phone": "+49 34772 83130",
      "openingHours": "Mo-Sa 11:00-22:00; Su 11:00-20:00",
      "tags": [
        "restaurant"
      ],
      "source": "openstreetmap",
      "sourceId": ""
    },
    {
      "id": "osm-node-1723641457",
      "name": "Handwerkerstübchen",
      "displayName": "Handwerkerstübchen",
      "category": "restaurant",
      "latitude": 51.3687758,
      "longitude": 10.8549088,
      "city": "Sondershausen",
      "address": "August-Bebel-Straße",
      "description": "",
      "website": "",
      "phone": "",
      "openingHours": "",
      "tags": [
        "restaurant"
      ],
      "source": "openstreetmap",
      "sourceId": ""
    },
    {
      "id": "osm-node-1731504261",
      "name": "Weißes Roß",
      "displayName": "Weißes Roß",
      "category": "restaurant",
      "latitude": 51.2937671,
      "longitude": 10.949361,
      "city": "Greußen",
      "address": "Hauptstraße",
      "description": "",
      "website": "",
      "phone": "",
      "openingHours": "",
      "tags": [
        "restaurant"
      ],
      "source": "openstreetmap",
      "sourceId": ""
    },
    {
      "id": "osm-node-1739023698",
      "name": "Reiterhof Nucke",
      "displayName": "Reiterhof Nucke",
      "category": "cafe",
      "latitude": 51.3746449,
      "longitude": 10.8548623,
      "city": "Sondershausen",
      "address": "Gerhart-Hauptmann-Straße",
      "description": "",
      "website": "",
      "phone": "",
      "openingHours": "",
      "tags": [
        "cafe"
      ],
      "source": "openstreetmap",
      "sourceId": ""
    },
    {
      "id": "osm-node-1739088660",
      "name": "Am Schacht",
      "displayName": "Am Schacht",
      "category": "restaurant",
      "latitude": 51.3921019,
      "longitude": 10.8296125,
      "city": "Sondershausen",
      "address": "Schachtstraße",
      "description": "",
      "website": "https://www.pension-am-schacht.de/",
      "phone": "",
      "openingHours": "",
      "tags": [
        "restaurant"
      ],
      "source": "openstreetmap",
      "sourceId": ""
    },
    {
      "id": "osm-node-1825145332",
      "name": "Imbiss am Bär",
      "displayName": "Imbiss am Bär",
      "category": "imbiss",
      "latitude": 51.3818759,
      "longitude": 11.6004762,
      "city": "",
      "address": "",
      "description": "",
      "website": "",
      "phone": "",
      "openingHours": "Mo-Fr 08:00-16:00",
      "tags": [
        "fast_food"
      ],
      "source": "openstreetmap",
      "sourceId": ""
    },
    {
      "id": "osm-node-1825145337",
      "name": "Phong Nguyen-Mattheis Asia Bistro - Que Huong",
      "displayName": "Phong Nguyen-Mattheis Asia Bistro - Que Huong",
      "category": "imbiss",
      "latitude": 51.3805182,
      "longitude": 11.5975435,
      "city": "",
      "address": "",
      "description": "",
      "website": "",
      "phone": "",
      "openingHours": "",
      "tags": [
        "fast_food"
      ],
      "source": "openstreetmap",
      "sourceId": ""
    },
    {
      "id": "osm-node-1826672240",
      "name": "Ratskeller",
      "displayName": "Ratskeller",
      "category": "restaurant",
      "latitude": 51.4733176,
      "longitude": 11.2990056,
      "city": "Sangerhausen",
      "address": "Markt",
      "description": "",
      "website": "http://www.ratskeller-sangerhausen.de/",
      "phone": "+49 3464 579290",
      "openingHours": "",
      "tags": [
        "restaurant"
      ],
      "source": "openstreetmap",
      "sourceId": ""
    },
    {
      "id": "osm-node-1831130511",
      "name": "Zur Schwarzen Rose",
      "displayName": "Zur Schwarzen Rose",
      "category": "restaurant",
      "latitude": 51.4732658,
      "longitude": 11.3147023,
      "city": "",
      "address": "",
      "description": "",
      "website": "",
      "phone": "",
      "openingHours": "",
      "tags": [
        "restaurant"
      ],
      "source": "openstreetmap",
      "sourceId": ""
    },
    {
      "id": "osm-node-1833912571",
      "name": "Cafe RoSa",
      "displayName": "Cafe RoSa",
      "category": "cafe",
      "latitude": 51.6730975,
      "longitude": 11.7723897,
      "city": "Könnern",
      "address": "Platz des Friedens",
      "description": "",
      "website": "",
      "phone": "",
      "openingHours": "",
      "tags": [
        "cafe"
      ],
      "source": "openstreetmap",
      "sourceId": ""
    },
    {
      "id": "osm-node-1837574471",
      "name": "Waldkater",
      "displayName": "Waldkater",
      "category": "restaurant",
      "latitude": 51.6595566,
      "longitude": 11.5086961,
      "city": "Hettstedt",
      "address": "Beethovenstraße",
      "description": "",
      "website": "",
      "phone": "+49 3476 853989",
      "openingHours": "",
      "tags": [
        "restaurant"
      ],
      "source": "openstreetmap",
      "sourceId": ""
    },
    {
      "id": "osm-node-1847460798",
      "name": "Grillstation",
      "displayName": "Grillstation",
      "category": "imbiss",
      "latitude": 51.3338175,
      "longitude": 11.4628336,
      "city": "",
      "address": "",
      "description": "",
      "website": "",
      "phone": "",
      "openingHours": "",
      "tags": [
        "fast_food"
      ],
      "source": "openstreetmap",
      "sourceId": ""
    },
    {
      "id": "osm-node-1872829615",
      "name": "Grillstand",
      "displayName": "Grillstand",
      "category": "imbiss",
      "latitude": 51.3233351,
      "longitude": 11.3174434,
      "city": "",
      "address": "",
      "description": "",
      "website": "",
      "phone": "",
      "openingHours": "",
      "tags": [
        "fast_food"
      ],
      "source": "openstreetmap",
      "sourceId": ""
    },
    {
      "id": "osm-node-1873212293",
      "name": "Gutsgasthof Braunsroda",
      "displayName": "Gutsgasthof Braunsroda",
      "category": "restaurant",
      "latitude": 51.3089491,
      "longitude": 11.2472729,
      "city": "An der Schmücke",
      "address": "Heidelbergstraße",
      "description": "",
      "website": "https://www.gutshaus-von-bismarck.de/gasthof.html",
      "phone": "+49 34673 781433",
      "openingHours": "Sa-Su,PH 12:00-18:00; \"Weihnachten gesonderte Öffnungszeiten\"",
      "tags": [
        "restaurant"
      ],
      "source": "openstreetmap",
      "sourceId": ""
    },
    {
      "id": "osm-node-1877413378",
      "name": "Gaststätte \"Am Stadion\"",
      "displayName": "Gaststätte \"Am Stadion\"",
      "category": "pub",
      "latitude": 51.3605293,
      "longitude": 11.298309,
      "city": "",
      "address": "",
      "description": "",
      "website": "",
      "phone": "",
      "openingHours": "",
      "tags": [
        "pub"
      ],
      "source": "openstreetmap",
      "sourceId": ""
    },
    {
      "id": "osm-node-1877413397",
      "name": "Imbiss \"Zur Saline\"",
      "displayName": "Imbiss \"Zur Saline\"",
      "category": "imbiss",
      "latitude": 51.3604946,
      "longitude": 11.2986685,
      "city": "",
      "address": "",
      "description": "",
      "website": "",
      "phone": "",
      "openingHours": "",
      "tags": [
        "fast_food"
      ],
      "source": "openstreetmap",
      "sourceId": ""
    },
    {
      "id": "osm-node-1884560159",
      "name": "Zur Krone",
      "displayName": "Zur Krone",
      "category": "restaurant",
      "latitude": 51.6902281,
      "longitude": 10.8523709,
      "city": "Oberharz am Brocken",
      "address": "Breite Straße",
      "description": "",
      "website": "http://www.krone-harz.de",
      "phone": "+49 39459 73980",
      "openingHours": "Fr,Sa 11:30-14:00, Su 11:30-14:00, Mo,Tu,Th-Sa 17:00-21:30",
      "tags": [
        "restaurant"
      ],
      "source": "openstreetmap",
      "sourceId": ""
    },
    {
      "id": "osm-node-1885941606",
      "name": "Asia Imbiss",
      "displayName": "Asia Imbiss",
      "category": "imbiss",
      "latitude": 51.3750866,
      "longitude": 11.2859521,
      "city": "",
      "address": "",
      "description": "",
      "website": "",
      "phone": "",
      "openingHours": "",
      "tags": [
        "fast_food"
      ],
      "source": "openstreetmap",
      "sourceId": ""
    },
    {
      "id": "osm-node-1888594445",
      "name": "Gasthaus Burgstieg",
      "displayName": "Gasthaus Burgstieg",
      "category": "restaurant",
      "latitude": 51.6673396,
      "longitude": 10.8869576,
      "city": "Oberharz am Brocken",
      "address": "Marktstraße",
      "description": "",
      "website": "",
      "phone": "+49 39459 71254",
      "openingHours": "",
      "tags": [
        "guest_house",
        "restaurant"
      ],
      "source": "openstreetmap",
      "sourceId": ""
    },
    {
      "id": "osm-node-1908481462",
      "name": "Subway",
      "displayName": "Subway",
      "category": "imbiss",
      "latitude": 51.5310024,
      "longitude": 11.5472415,
      "city": "",
      "address": "",
      "description": "",
      "website": "",
      "phone": "",
      "openingHours": "",
      "tags": [
        "fast_food"
      ],
      "source": "openstreetmap",
      "sourceId": ""
    },
    {
      "id": "osm-node-1910209548",
      "name": "Wirtshaus zur Weinstraße",
      "displayName": "Wirtshaus zur Weinstraße",
      "category": "restaurant",
      "latitude": 51.4865489,
      "longitude": 11.7750612,
      "city": "Teutschenthal",
      "address": "Welle",
      "description": "",
      "website": "https://www.zur-weinstrasse-langenbogen.de",
      "phone": "+49 34601 55194",
      "openingHours": "We-Fr 17:00-22:00, 17:00-22:00; Su 11:30-14:00",
      "tags": [
        "restaurant"
      ],
      "source": "openstreetmap",
      "sourceId": ""
    },
    {
      "id": "osm-node-1943652377",
      "name": "Eiscafé Hartmann",
      "displayName": "Eiscafé Hartmann",
      "category": "cafe",
      "latitude": 51.6892083,
      "longitude": 10.8524515,
      "city": "Oberharz am Brocken",
      "address": "Salzmarktstraße",
      "description": "",
      "website": "https://www.eiscafe-hartmann.de",
      "phone": "+49 39459 71467",
      "openingHours": "We-Su 13:00-17:00",
      "tags": [
        "cafe"
      ],
      "source": "openstreetmap",
      "sourceId": ""
    },
    {
      "id": "osm-node-1985787963",
      "name": "Imbiss Grill Insel",
      "displayName": "Imbiss Grill Insel",
      "category": "imbiss",
      "latitude": 51.2573598,
      "longitude": 11.7247561,
      "city": "",
      "address": "",
      "description": "",
      "website": "",
      "phone": "",
      "openingHours": "",
      "tags": [
        "fast_food"
      ],
      "source": "openstreetmap",
      "sourceId": ""
    },
    {
      "id": "osm-node-1991203797",
      "name": "Fürstenkeller",
      "displayName": "Fürstenkeller",
      "category": "restaurant",
      "latitude": 51.3768545,
      "longitude": 11.5933034,
      "city": "",
      "address": "",
      "description": "",
      "website": "",
      "phone": "",
      "openingHours": "",
      "tags": [
        "restaurant"
      ],
      "source": "openstreetmap",
      "sourceId": ""
    },
    {
      "id": "osm-node-1996242838",
      "name": "Zum Stuppel",
      "displayName": "Zum Stuppel",
      "category": "pub",
      "latitude": 51.5164635,
      "longitude": 11.286075,
      "city": "",
      "address": "",
      "description": "",
      "website": "",
      "phone": "",
      "openingHours": "",
      "tags": [
        "pub"
      ],
      "source": "openstreetmap",
      "sourceId": ""
    },
    {
      "id": "osm-node-2039816160",
      "name": "Zum Fröhlichen Wanderer",
      "displayName": "Zum Fröhlichen Wanderer",
      "category": "restaurant",
      "latitude": 51.2612357,
      "longitude": 11.3885218,
      "city": "",
      "address": "",
      "description": "",
      "website": "",
      "phone": "",
      "openingHours": "",
      "tags": [
        "restaurant"
      ],
      "source": "openstreetmap",
      "sourceId": ""
    },
    {
      "id": "osm-node-2117647527",
      "name": "Gottert",
      "displayName": "Gottert",
      "category": "restaurant",
      "latitude": 51.493406,
      "longitude": 10.815485,
      "city": "",
      "address": "Hallesche Straße",
      "description": "",
      "website": "",
      "phone": "",
      "openingHours": "",
      "tags": [
        "restaurant"
      ],
      "source": "openstreetmap",
      "sourceId": ""
    },
    {
      "id": "osm-node-2150552074",
      "name": "Rosengarten Villa Italia 2",
      "displayName": "Rosengarten Villa Italia 2",
      "category": "restaurant",
      "latitude": 51.515031,
      "longitude": 10.801951,
      "city": "Nordhausen",
      "address": "Dr.-Robert-Koch-Straße",
      "description": "",
      "website": "https://www.rosengarten-cafe.de/",
      "phone": "+49 3631 6516031",
      "openingHours": "Tu-Sa 11:00-23:00; Su 11:00-22:00",
      "tags": [
        "restaurant"
      ],
      "source": "openstreetmap",
      "sourceId": ""
    },
    {
      "id": "osm-node-2231437368",
      "name": "Hotel Pension Rebentisch",
      "displayName": "Hotel Pension Rebentisch",
      "category": "restaurant",
      "latitude": 51.676587,
      "longitude": 10.8357434,
      "city": "Oberharz am Brocken",
      "address": "Rotacker",
      "description": "",
      "website": "https://www.hotel-rebentisch.de/",
      "phone": "+49 39459 71320",
      "openingHours": "Tu-Su,PH 12:00-14:00,18:00-22:00",
      "tags": [
        "guest_house",
        "restaurant"
      ],
      "source": "openstreetmap",
      "sourceId": ""
    },
    {
      "id": "osm-node-2284492983",
      "name": "Zur Grünen Tanne",
      "displayName": "Zur Grünen Tanne",
      "category": "restaurant",
      "latitude": 51.33658,
      "longitude": 11.2736501,
      "city": "",
      "address": "",
      "description": "",
      "website": "",
      "phone": "",
      "openingHours": "",
      "tags": [
        "restaurant"
      ],
      "source": "openstreetmap",
      "sourceId": ""
    },
    {
      "id": "osm-node-2292660582",
      "name": "Asia Imbiss",
      "displayName": "Asia Imbiss",
      "category": "imbiss",
      "latitude": 51.4628356,
      "longitude": 11.0723778,
      "city": "",
      "address": "",
      "description": "",
      "website": "",
      "phone": "",
      "openingHours": "",
      "tags": [
        "fast_food"
      ],
      "source": "openstreetmap",
      "sourceId": ""
    },
    {
      "id": "osm-node-2335813907",
      "name": "Zum Herrenkrug",
      "displayName": "Zum Herrenkrug",
      "category": "restaurant",
      "latitude": 51.4755802,
      "longitude": 11.3069615,
      "city": "Sangerhausen",
      "address": "Riestedter Straße",
      "description": "",
      "website": "",
      "phone": "+49 3464 573514",
      "openingHours": "",
      "tags": [
        "restaurant"
      ],
      "source": "openstreetmap",
      "sourceId": ""
    },
    {
      "id": "osm-node-2344531401",
      "name": "Fuxbau",
      "displayName": "Fuxbau",
      "category": "pub",
      "latitude": 51.6441697,
      "longitude": 11.5092594,
      "city": "",
      "address": "",
      "description": "",
      "website": "",
      "phone": "",
      "openingHours": "",
      "tags": [
        "pub"
      ],
      "source": "openstreetmap",
      "sourceId": ""
    },
    {
      "id": "osm-node-2384952718",
      "name": "1 Euro Gasthaus",
      "displayName": "1 Euro Gasthaus",
      "category": "restaurant",
      "latitude": 51.6782949,
      "longitude": 10.9676137,
      "city": "",
      "address": "",
      "description": "",
      "website": "",
      "phone": "",
      "openingHours": "Mo-Su 17:00-22:00",
      "tags": [
        "restaurant"
      ],
      "source": "openstreetmap",
      "sourceId": ""
    },
    {
      "id": "osm-node-2393174984",
      "name": "Döner & Pizza",
      "displayName": "Döner & Pizza",
      "category": "imbiss",
      "latitude": 51.2863829,
      "longitude": 11.5881513,
      "city": "",
      "address": "",
      "description": "",
      "website": "",
      "phone": "",
      "openingHours": "",
      "tags": [
        "fast_food"
      ],
      "source": "openstreetmap",
      "sourceId": ""
    },
    {
      "id": "osm-node-2403628241",
      "name": "Sen Viet",
      "displayName": "Sen Viet",
      "category": "restaurant",
      "latitude": 51.371369,
      "longitude": 10.8809872,
      "city": "",
      "address": "",
      "description": "",
      "website": "",
      "phone": "",
      "openingHours": "Mo-Sa 11:00-14:00,17:00-21:30, Su 11:00-14:00",
      "tags": [
        "restaurant"
      ],
      "source": "openstreetmap",
      "sourceId": ""
    },
    {
      "id": "osm-node-2428390007",
      "name": "Kelterbergterrassen",
      "displayName": "Kelterbergterrassen",
      "category": "restaurant",
      "latitude": 51.4877065,
      "longitude": 11.7283989,
      "city": "",
      "address": "",
      "description": "",
      "website": "https://weingut-born.de/",
      "phone": "",
      "openingHours": "",
      "tags": [
        "restaurant"
      ],
      "source": "openstreetmap",
      "sourceId": ""
    },
    {
      "id": "osm-node-2491325811",
      "name": "Gulaschkanone",
      "displayName": "Gulaschkanone",
      "category": "imbiss",
      "latitude": 51.6525395,
      "longitude": 11.0811613,
      "city": "",
      "address": "",
      "description": "",
      "website": "",
      "phone": "",
      "openingHours": "",
      "tags": [
        "fast_food"
      ],
      "source": "openstreetmap",
      "sourceId": ""
    },
    {
      "id": "osm-node-2678742176",
      "name": "Selkeblick",
      "displayName": "Selkeblick",
      "category": "imbiss",
      "latitude": 51.699149,
      "longitude": 11.288358,
      "city": "Falkenstein/Harz",
      "address": "Falkensteiner Weg",
      "description": "",
      "website": "",
      "phone": "+49 34743 8156",
      "openingHours": "Mo-Fr,Su 11:00-19:00",
      "tags": [
        "fast_food"
      ],
      "source": "openstreetmap",
      "sourceId": ""
    },
    {
      "id": "osm-node-2894280657",
      "name": "Ratskeller Inh. Wolfgang Lüdecke",
      "displayName": "Ratskeller Inh. Wolfgang Lüdecke",
      "category": "restaurant",
      "latitude": 51.4954788,
      "longitude": 11.3573849,
      "city": "Sangerhausen",
      "address": "Mansfelder Straße",
      "description": "",
      "website": "",
      "phone": "",
      "openingHours": "PH,Mo-Su 11:30-15:00",
      "tags": [
        "restaurant"
      ],
      "source": "openstreetmap",
      "sourceId": ""
    },
    {
      "id": "osm-node-2967105811",
      "name": "Gutshaus von Bismarck",
      "displayName": "Gutshaus von Bismarck",
      "category": "cafe",
      "latitude": 51.3089923,
      "longitude": 11.2473074,
      "city": "",
      "address": "",
      "description": "",
      "website": "",
      "phone": "",
      "openingHours": "",
      "tags": [
        "chalet",
        "cafe"
      ],
      "source": "openstreetmap",
      "sourceId": ""
    },
    {
      "id": "osm-node-2969447799",
      "name": "Asiatischer Imbiss",
      "displayName": "Asiatischer Imbiss",
      "category": "restaurant",
      "latitude": 51.4771007,
      "longitude": 11.6357308,
      "city": "Seegebiet Mansfelder Land",
      "address": "Zur Lindenstraße",
      "description": "",
      "website": "",
      "phone": "+49 34774 219903",
      "openingHours": "",
      "tags": [
        "restaurant"
      ],
      "source": "openstreetmap",
      "sourceId": ""
    },
    {
      "id": "osm-node-3062188089",
      "name": "Rhodos",
      "displayName": "Rhodos",
      "category": "restaurant",
      "latitude": 51.4738155,
      "longitude": 11.2994953,
      "city": "Sangerhausen",
      "address": "Kornmarkt",
      "description": "",
      "website": "",
      "phone": "+49 3464 573919",
      "openingHours": "",
      "tags": [
        "restaurant"
      ],
      "source": "openstreetmap",
      "sourceId": ""
    },
    {
      "id": "osm-node-3138397168",
      "name": "La Romantica Restaurant",
      "displayName": "La Romantica Restaurant",
      "category": "restaurant",
      "latitude": 51.4730957,
      "longitude": 11.2979896,
      "city": "Sangerhausen",
      "address": "Markt",
      "description": "",
      "website": "https://ristorante-la-romantica-sangerhausen.eatbu.com/?lang=de#",
      "phone": "+4934642774343",
      "openingHours": "Mo-Su 11:00-23:00",
      "tags": [
        "restaurant"
      ],
      "source": "openstreetmap",
      "sourceId": ""
    },
    {
      "id": "osm-node-3138397170",
      "name": "Hanoi Bistro",
      "displayName": "Hanoi Bistro",
      "category": "restaurant",
      "latitude": 51.4756622,
      "longitude": 11.2972541,
      "city": "Sangerhausen",
      "address": "An der Gonna",
      "description": "",
      "website": "",
      "phone": "",
      "openingHours": "Mo-Fr 10:00-20:00",
      "tags": [
        "restaurant"
      ],
      "source": "openstreetmap",
      "sourceId": ""
    },
    {
      "id": "osm-node-3138420679",
      "name": "Die Kantine",
      "displayName": "Die Kantine",
      "category": "restaurant",
      "latitude": 51.4708726,
      "longitude": 11.2909353,
      "city": "Sangerhausen",
      "address": "Kyselhäuser Straße",
      "description": "",
      "website": "http://www.kantine-sgh.de/",
      "phone": "+49 3464 454 3535",
      "openingHours": "Mo-Fr 07:00-14:00",
      "tags": [
        "restaurant"
      ],
      "source": "openstreetmap",
      "sourceId": ""
    },
    {
      "id": "osm-node-3138420681",
      "name": "Zur scharfen Ecke",
      "displayName": "Zur scharfen Ecke",
      "category": "restaurant",
      "latitude": 51.4719549,
      "longitude": 11.2937614,
      "city": "Sangerhausen",
      "address": "Kylische Straße",
      "description": "",
      "website": "",
      "phone": "+49 3464 573588",
      "openingHours": "Mo 11:00-14:00; Tu 11:00-14:00, 18:00-22:00; We 11:00-14:00; Th OFF; Fr 11:00-14:00, 18:00-22:00; Sa 11:00-14:00, 18:00-22:00; Su 11:00-14:00",
      "tags": [
        "restaurant"
      ],
      "source": "openstreetmap",
      "sourceId": ""
    },
    {
      "id": "osm-node-3138810332",
      "name": "Biergarten am Friesenstadion",
      "displayName": "Biergarten am Friesenstadion",
      "category": "biergarten",
      "latitude": 51.4750832,
      "longitude": 11.2867866,
      "city": "",
      "address": "",
      "description": "",
      "website": "",
      "phone": "",
      "openingHours": "",
      "tags": [
        "biergarten"
      ],
      "source": "openstreetmap",
      "sourceId": ""
    },
    {
      "id": "osm-node-3150836761",
      "name": "Zu den drei Linden",
      "displayName": "Zu den drei Linden",
      "category": "restaurant",
      "latitude": 51.3448634,
      "longitude": 11.5430989,
      "city": "",
      "address": "",
      "description": "",
      "website": "",
      "phone": "",
      "openingHours": "",
      "tags": [
        "restaurant"
      ],
      "source": "openstreetmap",
      "sourceId": ""
    },
    {
      "id": "osm-node-3170260515",
      "name": "Harzpforte",
      "displayName": "Harzpforte",
      "category": "restaurant",
      "latitude": 51.5279585,
      "longitude": 10.8248847,
      "city": "Nordhausen",
      "address": "Petersdorfer Straße",
      "description": "",
      "website": "",
      "phone": "+49 3631 891 409",
      "openingHours": "Th-Tu 11:00-22:00; We off",
      "tags": [
        "restaurant"
      ],
      "source": "openstreetmap",
      "sourceId": ""
    },
    {
      "id": "osm-node-3353107378",
      "name": "Fellini",
      "displayName": "Fellini",
      "category": "restaurant",
      "latitude": 51.5284093,
      "longitude": 11.5428139,
      "city": "Lutherstadt Eisleben",
      "address": "Sangerhäuser Straße",
      "description": "",
      "website": "",
      "phone": "",
      "openingHours": "Mo-Su 11:00-14:30; Mo-Su 17:30-23:00",
      "tags": [
        "restaurant"
      ],
      "source": "openstreetmap",
      "sourceId": ""
    },
    {
      "id": "osm-node-3381138958",
      "name": "Speise und Partyservice Endler",
      "displayName": "Speise und Partyservice Endler",
      "category": "restaurant",
      "latitude": 51.4038652,
      "longitude": 11.3851978,
      "city": "Allstedt",
      "address": "Markt",
      "description": "",
      "website": "",
      "phone": "",
      "openingHours": "",
      "tags": [
        "restaurant"
      ],
      "source": "openstreetmap",
      "sourceId": ""
    },
    {
      "id": "osm-node-3507339694",
      "name": "Straußwirtschaft Am Steineck",
      "displayName": "Straußwirtschaft Am Steineck",
      "category": "restaurant",
      "latitude": 51.4877898,
      "longitude": 11.758422,
      "city": "",
      "address": "",
      "description": "",
      "website": "",
      "phone": "",
      "openingHours": "",
      "tags": [
        "restaurant"
      ],
      "source": "openstreetmap",
      "sourceId": ""
    },