{
  "meta": {
    "source": "manual_seed",
    "created_at": "2026-01-27",
    "version": "1.0",
    "region": "Mansfeld-Südharz"
  },
  "data": [
    {
      "id": "arzt_001",
      "type": "doctor",
      "name": "Dr. med. Maria Schmidt",
      "specialization": "allgemein",
      "phone": "03464123456",
      "phoneFormatted": "03464 / 12 34 56",
      "email": "praxis@dr-schmidt.de",
      "website": "https://dr-schmidt-sangerhausen.de",
      "street": "Hauptstraße 15",
      "postalCode": "06526",
      "city": "Sangerhausen",
      "latitude": 51.4721,
      "longitude": 11.2978,
      "openingHours": {
        "monday": {"from": "08:00", "to": "12:00", "afternoon": {"from": "14:00", "to": "18:00"}},
        "tuesday": {"from": "08:00", "to": "12:00"},
        "wednesday": {"from": "08:00", "to": "12:00", "afternoon": {"from": "14:00", "to": "18:00"}},
        "thursday": {"from": "08:00", "to": "12:00"},
        "friday": {"from": "08:00", "to": "12:00"}
      },
      "walkInHours": "Di + Do 08:00-09:00",
      "hasHouseCalls": true,
      "isBarrierFree": true,
      "hasParking": true,
      "languages": ["Deutsch", "Englisch"],
      "acceptsPublicInsurance": true,
      "acceptsPrivateInsurance": true,
      "rating": 4.3,
      "ratingCount": 47
    },
    {
      "id": "arzt_002",
      "type": "doctor",
      "name": "Dr. med. Hans Weber",
      "specialization": "kardio",
      "phone": "03464234567",
      "phoneFormatted": "03464 / 23 45 67",
      "street": "Bahnhofstraße 8",
      "postalCode": "06526",
      "city": "Sangerhausen",
      "latitude": 51.4698,
      "longitude": 11.3012,
      "openingHours": {
        "monday": {"from": "08:00", "to": "13:00"},
        "tuesday": {"from": "08:00", "to": "13:00", "afternoon": {"from": "15:00", "to": "18:00"}},
        "wednesday": {"from": "08:00", "to": "13:00"},
        "thursday": {"from": "08:00", "to": "13:00", "afternoon": {"from": "15:00", "to": "18:00"}},
        "friday": {"from": "08:00", "to": "12:00"}
      },
      "hasHouseCalls": false,
      "isBarrierFree": true,
      "hasParking": true,
      "languages": ["Deutsch"],
      "rating": 4.7,
      "ratingCount": 32
    },
    {
      "id": "arzt_003",
      "type": "doctor",
      "name": "Dr. med. Petra Müller",
      "specialization": "allgemein",
      "phone": "03475345678",
      "phoneFormatted": "03475 / 34 56 78",
      "street": "Marktplatz 12",
      "postalCode": "06295",
      "city": "Lutherstadt Eisleben",
      "latitude": 51.5274,
      "longitude": 11.5481,
      "openingHours": {
        "monday": {"from": "07:30", "to": "12:00", "afternoon": {"from": "14:00", "to": "17:00"}},
        "tuesday": {"from": "07:30", "to": "12:00"},
        "wednesday": {"from": "07:30", "to": "12:00", "afternoon": {"from": "14:00", "to": "17:00"}},
        "thursday": {"from": "07:30", "to": "12:00"},
        "friday": {"from": "07:30", "to": "12:00"}
      },
      "walkInHours": "Mo-Fr 07:30-08:30",
      "hasHouseCalls": true,
      "isBarrierFree": false,
      "hasParking": false,
      "languages": ["Deutsch"],
      "rating": 4.5,
      "ratingCount": 89
    },
    {
      "id": "arzt_004",
      "type": "doctor",
      "name": "Dr. med. dent. Thomas Klein",
      "specialization": "zahn",
      "phone": "03464456789",
      "phoneFormatted": "03464 / 45 67 89",
      "street": "Bergstraße 22",
      "postalCode": "06526",
      "city": "Sangerhausen",
      "latitude": 51.4745,
      "longitude": 11.2956,
      "openingHours": {
        "monday": {"from": "08:00", "to": "12:00", "afternoon": {"from": "14:00", "to": "18:00"}},
        "tuesday": {"from": "08:00", "to": "12:00", "afternoon": {"from": "14:00", "to": "18:00"}},
        "wednesday": {"from": "08:00", "to": "12:00"},
        "thursday": {"from": "08:00", "to": "12:00", "afternoon": {"from": "14:00", "to": "18:00"}},
        "friday": {"from": "08:00", "to": "13:00"}
      },
      "hasHouseCalls": false,
      "isBarrierFree": true,
      "hasParking": true,
      "languages": ["Deutsch", "Englisch"],
      "rating": 4.8,
      "ratingCount": 156
    },
    {
      "id": "arzt_005",
      "type": "doctor",
      "name": "Dr. med. Sabine Hoffmann",
      "specialization": "ortho",
      "phone": "03464567890",
      "phoneFormatted": "03464 / 56 78 90",
      "street": "Riestedter Straße 5",
      "postalCode": "06526",
      "city": "Sangerhausen",
      "latitude": 51.4689,
      "longitude": 11.2934,
      "openingHours": {
        "monday": {"from": "08:00", "to": "12:00"},
        "tuesday": {"from": "08:00", "to": "12:00", "afternoon": {"from": "14:00", "to": "17:00"}},
        "wednesday": {"from": "08:00", "to": "12:00"},
        "thursday": {"from": "08:00", "to": "12:00", "afternoon": {"from": "14:00", "to": "17:00"}},
        "friday": {"from": "08:00", "to": "11:00"}
      },
      "hasHouseCalls": false,
      "isBarrierFree": true,
      "hasParking": true,
      "languages": ["Deutsch"],
      "rating": 4.2,
      "ratingCount": 73
    }
  ]
}
