{
  "meta": {
    "source": "arzt-auskunft.de, arzt-atlas.de",
    "created_at": "2026-01-27",
    "version": "2.0",
    "region": "Mansfeld-Südharz",
    "note": "Echte Ärzte-Daten"
  },
  "data": [
    {
      "id": "arzt_sg_001",
      "type": "doctor",
      "name": "Katharina Friedemann",
      "specialization": "allgemein",
      "phone": "03464344845",
      "phoneFormatted": "03464 / 34 48 45",
      "street": "Bahnhofstraße 33",
      "postalCode": "06526",
      "city": "Sangerhausen",
      "latitude": 51.4698,
      "longitude": 11.3012,
      "hasHouseCalls": true,
      "isBarrierFree": true,
      "languages": ["Deutsch", "Englisch"],
      "acceptsPublicInsurance": true,
      "acceptsPrivateInsurance": true
    },
    {
      "id": "arzt_sg_002",
      "type": "doctor",
      "name": "Sandra Grünewald",
      "specialization": "allgemein",
      "phone": "03464613759",
      "phoneFormatted": "03464 / 61 37 59",
      "street": "Karl-Liebknecht-Straße 64",
      "postalCode": "06526",
      "city": "Sangerhausen",
      "latitude": 51.4702,
      "longitude": 11.2985,
      "hasHouseCalls": true,
      "isBarrierFree": true,
      "hasParking": true,
      "languages": ["Deutsch"],
      "acceptsPublicInsurance": true,
      "acceptsPrivateInsurance": true
    },
    {
      "id": "arzt_sg_003",
      "type": "doctor",
      "name": "Gemeinschaftspraxis Dr. Anne Jansch & Dr. Christel Tettenborn",
      "specialization": "allgemein",
      "phone": "03464573456",
      "phoneFormatted": "03464 / 57 34 56",
      "street": "Alte Promenade 43",
      "postalCode": "06526",
      "city": "Sangerhausen",
      "latitude": 51.4721,
      "longitude": 11.2978,
      "hasHouseCalls": true,
      "isBarrierFree": false,
      "languages": ["Deutsch"],
      "acceptsPublicInsurance": true,
      "acceptsPrivateInsurance": true
    },
    {
      "id": "arzt_sg_004",
      "type": "doctor",
      "name": "Gemeinschaftspraxis Dr. Susanne Fischer & Dipl.-Med. Gabriele Fischer",
      "specialization": "allgemein",
      "phone": "03464578720",
      "phoneFormatted": "03464 / 57 87 20",
      "street": "Am Ring 18",
      "postalCode": "06526",
      "city": "Sangerhausen",
      "latitude": 51.4712,
      "longitude": 11.2945,
      "hasHouseCalls": true,
      "isBarrierFree": true,
      "hasParking": true,
      "languages": ["Deutsch"],
      "acceptsPublicInsurance": true,
      "acceptsPrivateInsurance": true
    },
    {
      "id": "arzt_sg_005",
      "type": "doctor",
      "name": "Dr. med. Uwe Kautz",
      "specialization": "innere",
      "phone": "03464520032",
      "phoneFormatted": "03464 / 52 00 32",
      "street": "Alte Hauptstraße 30",
      "postalCode": "06526",
      "city": "Sangerhausen",
      "latitude": 51.4735,
      "longitude": 11.2956,
      "hasHouseCalls": false,
      "isBarrierFree": true,
      "languages": ["Deutsch"],
      "acceptsPublicInsurance": true,
      "acceptsPrivateInsurance": true
    },
    {
      "id": "arzt_sg_006",
      "type": "doctor",
      "name": "Dr. Andrei-Anton Radulescu",
      "specialization": "allgemein",
      "phone": "03464520030",
      "phoneFormatted": "03464 / 52 00 30",
      "street": "Sangerhäuser Straße 9",
      "postalCode": "06526",
      "city": "Sangerhausen",
      "latitude": 51.4689,
      "longitude": 11.2934,
      "hasHouseCalls": true,
      "isBarrierFree": true,
      "languages": ["Deutsch", "Rumänisch"],
      "acceptsPublicInsurance": true,
      "acceptsPrivateInsurance": true
    },
    {
      "id": "arzt_sg_007",
      "type": "doctor",
      "name": "Arman Mohebbi-Tafrechi",
      "specialization": "allgemein",
      "phone": "03464520032",
      "phoneFormatted": "03464 / 52 00 32",
      "street": "Sangerhäuser Straße 9",
      "postalCode": "06526",
      "city": "Sangerhausen-Oberröblingen",
      "latitude": 51.4565,
      "longitude": 11.2812,
      "hasHouseCalls": true,
      "isBarrierFree": true,
      "languages": ["Deutsch"],
      "acceptsPublicInsurance": true,
      "acceptsPrivateInsurance": true
    },
    {
      "id": "arzt_sg_008",
      "type": "doctor",
      "name": "Dr. med. Ehrenpfordt",
      "specialization": "hno",
      "phone": "03464573500",
      "phoneFormatted": "03464 / 57 35 00",
      "street": "Alte Promenade 1",
      "postalCode": "06526",
      "city": "Sangerhausen",
      "latitude": 51.4718,
      "longitude": 11.2968,
      "hasHouseCalls": false,
      "isBarrierFree": true,
      "languages": ["Deutsch"],
      "acceptsPublicInsurance": true,
      "acceptsPrivateInsurance": true
    },
    {
      "id": "arzt_el_001",
      "type": "doctor",
      "name": "Dr. med. Susanne Liebhold",
      "specialization": "innere",
      "phone": "03475604185",
      "phoneFormatted": "03475 / 60 41 85",
      "website": "https://www.internistische-hausarztpraxis-eisleben.de",
      "street": "Hohetorstraße 25a",
      "postalCode": "06295",
      "city": "Lutherstadt Eisleben",
      "latitude": 51.5281,
      "longitude": 11.5468,
      "hasHouseCalls": true,
      "isBarrierFree": true,
      "hasParking": true,
      "languages": ["Deutsch"],
      "acceptsPublicInsurance": true,
      "acceptsPrivateInsurance": true
    },
    {
      "id": "arzt_el_002",
      "type": "doctor",
      "name": "MR Dr. med. Frank Stahl",
      "specialization": "allgemein",
      "phone": "03475602274",
      "phoneFormatted": "03475 / 60 22 74",
      "street": "Straße des Aufbaues 39",
      "postalCode": "06295",
      "city": "Lutherstadt Eisleben",
      "latitude": 51.5265,
      "longitude": 11.5452,
      "hasHouseCalls": true,
      "isBarrierFree": false,
      "languages": ["Deutsch"],
      "acceptsPublicInsurance": true,
      "acceptsPrivateInsurance": true
    },
    {
      "id": "arzt_el_003",
      "type": "doctor",
      "name": "Dipl.-Med. Gabriele Komaritzan",
      "specialization": "allgemein",
      "phone": "03475714580",
      "phoneFormatted": "03475 / 71 45 80",
      "street": "Gewerbegebiet 6",
      "postalCode": "06295",
      "city": "Lutherstadt Eisleben OT Rothenschirmbach",
      "latitude": 51.5125,
      "longitude": 11.5234,
      "hasHouseCalls": true,
      "isBarrierFree": true,
      "languages": ["Deutsch"],
      "acceptsPublicInsurance": true,
      "acceptsPrivateInsurance": true
    },
    {
      "id": "arzt_el_004",
      "type": "doctor",
      "name": "Chirurgische Gemeinschaftspraxis Dres. Büchel & John",
      "specialization": "innere",
      "phone": "03475602300",
      "phoneFormatted": "03475 / 60 23 00",
      "street": "Markt 16",
      "postalCode": "06295",
      "city": "Lutherstadt Eisleben",
      "latitude": 51.5274,
      "longitude": 11.5481,
      "hasHouseCalls": false,
      "isBarrierFree": true,
      "languages": ["Deutsch"],
      "acceptsPublicInsurance": true,
      "acceptsPrivateInsurance": true
    }
  ]
}
