{
  "meta": {
    "source": "apoguide.de, news.de",
    "created_at": "2026-01-27",
    "version": "2.0",
    "region": "Mansfeld-Südharz",
    "note": "Echte Apotheken-Daten"
  },
  "data": [
    {
      "id": "apotheke_sg_001",
      "type": "pharmacy",
      "name": "Berg-Apotheke",
      "phone": "03464578720",
      "phoneFormatted": "03464 / 57 87 20",
      "street": "Am Ring 18",
      "postalCode": "06526",
      "city": "Sangerhausen",
      "latitude": 51.4712,
      "longitude": 11.2945,
      "isBarrierFree": true,
      "hasParking": true
    },
    {
      "id": "apotheke_sg_002",
      "type": "pharmacy",
      "name": "Glück-Auf Apotheke",
      "phone": "03464521890",
      "phoneFormatted": "03464 / 52 18 90",
      "street": "Karl-Liebknecht-Str. 64",
      "postalCode": "06526",
      "city": "Sangerhausen",
      "latitude": 51.4698,
      "longitude": 11.3012,
      "isBarrierFree": true,
      "hasParking": true
    },
    {
      "id": "apotheke_sg_003",
      "type": "pharmacy",
      "name": "Barbarossa-Apotheke",
      "phone": "03464573135",
      "phoneFormatted": "03464 / 57 31 35",
      "street": "Göpenstr. 37",
      "postalCode": "06526",
      "city": "Sangerhausen",
      "latitude": 51.4735,
      "longitude": 11.2978,
      "isBarrierFree": false,
      "hasParking": false
    },
    {
      "id": "apotheke_sg_004",
      "type": "pharmacy",
      "name": "Mammut-Apotheke",
      "phone": "03464589988",
      "phoneFormatted": "03464 / 58 99 88",
      "street": "Schützenplatz 10",
      "postalCode": "06526",
      "city": "Sangerhausen",
      "latitude": 51.4721,
      "longitude": 11.2965,
      "isBarrierFree": true,
      "hasParking": true
    },
    {
      "id": "apotheke_sg_005",
      "type": "pharmacy",
      "name": "Jacobi-Apotheke",
      "phone": "03464573000",
      "phoneFormatted": "03464 / 57 30 00",
      "street": "Kylische Straße 30",
      "postalCode": "06526",
      "city": "Sangerhausen",
      "latitude": 51.4708,
      "longitude": 11.2932,
      "isBarrierFree": true,
      "hasParking": false
    },
    {
      "id": "apotheke_sg_006",
      "type": "pharmacy",
      "name": "Marien-Apotheke",
      "phone": "0347752028",
      "phoneFormatted": "034775 / 20 28",
      "street": "Böttchenbachstr. 2",
      "postalCode": "06526",
      "city": "Sangerhausen",
      "latitude": 51.4745,
      "longitude": 11.2956,
      "isBarrierFree": false,
      "hasParking": true
    },
    {
      "id": "apotheke_el_001",
      "type": "pharmacy",
      "name": "Rosen-Apotheke",
      "phone": "03475604185",
      "phoneFormatted": "03475 / 60 41 85",
      "street": "Hohetorstr. 25a",
      "postalCode": "06295",
      "city": "Lutherstadt Eisleben",
      "latitude": 51.5281,
      "longitude": 11.5468,
      "isBarrierFree": true,
      "hasParking": true
    },
    {
      "id": "apotheke_el_002",
      "type": "pharmacy",
      "name": "Löwen-Apotheke",
      "phone": "03475602274",
      "phoneFormatted": "03475 / 60 22 74",
      "street": "Markt 18",
      "postalCode": "06295",
      "city": "Lutherstadt Eisleben",
      "latitude": 51.5274,
      "longitude": 11.5481,
      "isBarrierFree": false,
      "hasParking": false
    },
    {
      "id": "apotheke_el_003",
      "type": "pharmacy",
      "name": "Helpide-Apotheke",
      "phone": "03475714580",
      "phoneFormatted": "03475 / 71 45 80",
      "street": "Hallesche Str. 77",
      "postalCode": "06295",
      "city": "Lutherstadt Eisleben",
      "latitude": 51.5298,
      "longitude": 11.5512,
      "isBarrierFree": true,
      "hasParking": true
    },
    {
      "id": "apotheke_ht_001",
      "type": "pharmacy",
      "name": "Linden-Apotheke",
      "phone": "03476852005",
      "phoneFormatted": "03476 / 85 20 05",
      "street": "Lindenweg 3",
      "postalCode": "06333",
      "city": "Hettstedt",
      "latitude": 51.6385,
      "longitude": 11.5078,
      "isBarrierFree": true,
      "hasParking": true
    },
    {
      "id": "apotheke_ht_002",
      "type": "pharmacy",
      "name": "Apotheke am Saigertor",
      "phone": "03476813411",
      "phoneFormatted": "03476 / 81 34 11",
      "street": "Markt 16",
      "postalCode": "06333",
      "city": "Hettstedt",
      "latitude": 51.6391,
      "longitude": 11.5089,
      "isBarrierFree": false,
      "hasParking": false
    },
    {
      "id": "apotheke_ht_003",
      "type": "pharmacy",
      "name": "Aesculap-Apotheke",
      "phone": "03476851107",
      "phoneFormatted": "03476 / 85 11 07",
      "street": "Schillerstr. 22",
      "postalCode": "06333",
      "city": "Hettstedt",
      "latitude": 51.6398,
      "longitude": 11.5102,
      "isBarrierFree": true,
      "hasParking": false
    }
  ]
}
